chargeDeviceID,reference,name,latitude,longitude,chargeDeviceStatus
cfeedcdd5e287bef4b583158a12363f1,SRC_LDN60188,2 Riddons Road,51.431454,0.031175,In service
cf164e398bebd2384cbbbfe73fa72fcf,SRC_LDN60189,9 Bath Road Car Park,51.480920,-0.419318,Out of service
e2f964e176efb40969652e3249023645,SRC_LDN60190,ACE Cafe London,51.541210,-0.277943,In service
451bf16fff6233cca8d9ad69b31c33b9,SRC_LDN60192,Albemarle Street,51.509939,-0.142737,In service
9165d83699e3d014274f4737d169a2a0,SRC_LDN60193,Alcorn Close,51.378520,-0.202034,In service
e1544ee9437a8407ba1a88ad797fd3e2,SRC_LDN60194,Aldermans Hill,51.618522,-0.111670,In service
6bd1d12cb7b4668d39bd7b9d01a98bad,SRC_LDN60195,Alexandra Road/Holloway Street CP,51.469744,-0.363063,In service
f8411c202a5cf1e26a0eb50979857d44,SRC_LDN60196,Arnos Grove Station Car Park 1,51.616451,-0.132860,In service
9fa0bb67ba754c1b4e5921c3bc837ceb,SRC_LDN60197,Asda Bexleyheath,51.458198,0.142816,In service
47f1adc470baaf1874d79dc4144af95f,SRC_LDN60198,Asda Charlton,51.488779,0.022515,In service
cb306aab7cdb746c2996f02a7b7d1ce4,SRC_LDN60199,Asda Colindale,51.593928,-0.261281,In service
491ef963c5ac9a9136f60c8cb2188636,SRC_LDN60200,Asda Dagenham,51.530281,0.142523,In service
0a3cb8d6a1d544b17d920ff2d36b8c18,SRC_LDN60201,Asda Greenhithe,51.452537,0.275216,In service
c20168038c0e10c441f2c118ac418ee7,SRC_LDN60202,Asda Kingston on Thames,51.411135,-0.289650,In service
ddecc260427b448f88f296b1ef62b8a8,SRC_LDN60203,Asda Leyton,51.555913,-0.009736,In service
4c3860eca356f2a5ee47b2bfc2a9a93e,SRC_LDN60204,Asda Mitcham,51.407436,-0.169209,In service
c6d16d558ca9f98ad8e8fce9b6ded577,SRC_LDN60205,Asda Northolt Road,51.557969,-0.360619,In service
ea407c6c8898c300a60b1f84d8f15d80,SRC_LDN60206,Asda Park Royal,51.529290,-0.269699,In service
219f81cc6c7826d1bb55686944865323,SRC_LDN60207,Asda Roehampton,51.439365,-0.245991,In service
d5253bc36fa24d25543dcc144f93b3dc,SRC_LDN60208,Asda Stamford Hill,51.573702,-0.071216,In service
bb07992b31827afc0b94591957936729,SRC_LDN60209,Asda Swanley ,51.397043,0.174689,In service
1fe73dfba86c3b53a3597c79e251ecb2,SRC_LDN60210,Asda Watford,51.679995,-0.391451,In service
d2803a212b8ca2ea925e3c7242b0b84f,SRC_LDN60211,Asda Wembley,51.564220,-0.275429,In service
1be3614ec5d67a9fe3fd389516f369ea,SRC_LDN60212,Barking Road,51.519913,0.017249,In service
cbbfd74d4cb5aaf24c9e4a10d9f056d9,SRC_LDN60213,Baynard House Car Park 1,51.511987,-0.100486,Out of service
b9f879d2c97fe4e050a153e142f0d9ba,SRC_LDN60214,Belgrave Road Car Park,51.398398,-0.075466,In service
1aa75ead4fb22c7a6f25c91b5c48727e,SRC_LDN60216,Bentley Road Car Park,51.545689,-0.077189,In service
9d9b6df568499e7a2b1e4091229913f3,SRC_LDN60217,Berkeley Square 1,51.509531,-0.144815,In service
8d3fa11102ee509ebf012560ce3dd396,SRC_LDN60219,Biddulph Road,51.528073,-0.187326,Out of service
90c42a8da5f45fdc451fd59001c6355d,SRC_LDN60220,Bisham Gardens,51.570353,-0.146322,Out of service
b30bee5ec24f87c4a4e28163e78c8b22,SRC_LDN60222,Blackhorse Road Station Car Park 1,51.587386,-0.041217,In service
6b9a66afa26a38e7d9127e2cbdec35a7,SRC_LDN60223,Blagdon Road Car Park,51.400340,-0.253348,In service
062b476579a41daea439432ac779b391,SRC_LDN60224,Blissett Street,51.474621,-0.012485,In service
c3f2cd4bad8360893f1ce25f71f75037,SRC_LDN60225,Blissett Street,51.475092,-0.011600,In service
0d45af329c08f0c1a96b274414684a37,SRC_LDN60226,Bocking Street,51.537303,-0.057225,In service
63ae3e64663572042ecdd0ef493c16e1,SRC_LDN60227,Borough Market,51.506078,-0.091005,Out of service
3478ebc519f2d13b79fc22803f47b765,SRC_LDN60228,Botwell Green Sports and Leisure Complex,51.509273,-0.420701,In service
5b5c37f4490273a893dd9a89d14ca062,SRC_LDN60229,Brandville Road Car Park,51.507454,-0.471399,In service
86a2e69c428aafb50b38a78f62d35b8d,SRC_LDN60230,Brent South Retail Park,51.572200,-0.224629,In service
0ffe862de5e1e5f4c37e267f87743ec4,SRC_LDN60233,Bridge Road,51.363739,-0.299159,In service
3d57962739fd6ce041a88150f92290b8,SRC_LDN60234,Britannia Leisure Centre,51.535850,-0.083674,In service
9d512e28838bd0483c473d80a285d4e8,SRC_LDN60235,Bromley NCP - The Mall,51.402180,0.018289,In service
4f4ed24ebd74e0c83fb1dca8e065d4ca,SRC_LDN60237,Bury Road Car Park Level 1,51.593120,-0.105650,In service
906b92b2e09a38a0dc5933b4943e87a0,SRC_LDN60238,Cadogan Road East,51.494311,0.074421,Out of service
1608d514520ab9c8f76decb1d579f099,SRC_LDN60239,Cadogan Road West,51.494028,0.072651,In service
49c965eeb9807e1f10e4e809cffee8fb,SRC_LDN60241,Canary Wharf 1,51.504622,-0.016280,In service
e382852f04d7d7d131bc0fa2c4cf8cc9,SRC_LDN60242,Carlisle Street,51.515117,-0.132986,Out of service
5a8be7163b9b6d457877516ef0c8c257,SRC_LDN60243,Cattle Market Car Park (basement),51.409984,-0.298939,In service
729d75bf4ae9760e4f1f3522025cef25,SRC_LDN60244,Cedars Car Park,51.547779,-0.481442,In service
d5cb15b7eceeb8965bb6937b1f34cfc1,SRC_LDN60245,Chalfont & Latimer Station Car Park 1,51.668573,-0.561813,In service
41f3cba68ffb2f2a2181b08abb545f89,SRC_LDN60246,Charing Cross Hospital,51.486559,-0.220487,In service
512d92d7a986cbe30b2d82a804e3f009,SRC_LDN60249,Chiswick Peugeot (Robins & Day),51.492346,-0.281729,In service
ae9a5410bbfb439d970fe33802e86836,SRC_LDN60251,Church Street,51.625458,-0.062737,In service
53414900e2f2c28c88f5bb5ba754c49b,SRC_LDN60252,Circus Road,51.533632,-0.172340,In service
39795321717ae630a8da44715d783ff7,SRC_LDN60254,Civic Centre Car Park 2,51.543617,-0.476692,In service
496d691d99a11c0c98a1611ad4b1d52e,SRC_LDN60255,Claremont Road,51.394559,-0.304312,In service
9c3508e704aa16945cf79b05af57848c,SRC_LDN60256,Clarendon Rise/Albion Way Car Park,51.460762,-0.008725,In service
ee15c3ff282db9cfc0557a4117c5edd0,SRC_LDN60257,Clements Road Multi Storey CP ,51.557015,0.072065,In service
5958c80aabbcd2a448be9c36f0dfb50c,SRC_LDN60258,Clifton Villas,51.522475,-0.185270,In service
83c733dc5d84598104562151cc1c79b3,SRC_LDN60261,Concert Hall Approach,51.504865,-0.115390,In service
3e450e4af4a57d230a480691c7b26a04,SRC_LDN60262,Copperfield Street,51.503093,-0.097657,In service
a82edd56d1ef3f81e94fefac1757ff8f,SRC_LDN60263,Cornthwaite Road,51.557990,-0.052564,In service
38c37b881d026580ef22a9e4677f8096,SRC_LDN60264,Coverton Road,51.428398,-0.173291,In service
224c6aa84b57848656f7dfd11cd67d34,SRC_LDN60266,Crouch Hall Road Car Park,51.579177,-0.124935,In service
f3d24e8d7784db1ed4ec0b98c85e1df8,SRC_LDN60267,Croydon Nissan,51.348263,-0.100816,In service
ea3840c049893ef0051edf8bb6fa23f8,SRC_LDN60268,Currie Motors (Great West Road),51.490509,-0.308720,In service
e623ff4f394d554c5a1d095987994377,SRC_LDN60269,Currie Motors Isleworth,51.467370,-0.333691,In service
00edca0eac577434ebe1b76715e828ec,SRC_LDN60270,Currie Motors Kingston,51.415346,-0.252016,In service
0820738ec28ccc2b06a82d833d0ba1e8,SRC_LDN60271,Currie Motors Twickenham,51.454390,-0.337230,In service
0341610337a295be1b50f527a701bc75,SRC_LDN60272,Cuthbert Road,51.615281,-0.063994,In service
6abe352b723cebdc0b6b9e28d8ff40aa,SRC_LDN60273,Danby Street,51.466592,-0.073433,Out of service
c25eb64a3eb4fdbee9c8ec96efcc53f6,SRC_LDN60274,Danecroft Road,51.456087,-0.093134,In service
c8306dd6f56237f32fd2f50c8bb7a566,SRC_LDN60276,Doddington Grove,51.486509,-0.103129,In service
1be70c69cc6de24490ac34b68bd64a0c,SRC_LDN60278,Doughty Street,51.524617,-0.117504,Out of service
a13f3ba20b13b210c59faf8017d236c8,SRC_LDN60279,East Dulwich Grove,51.459683,-0.075494,Out of service
64b856008505d7261b5df826362ae3b8,SRC_LDN60281,Eaton Square,51.494528,-0.153679,In service
fd5b92cbb6b0596ab3cc6b8ce5a94668,SRC_LDN60282,Epsom General Hospital,51.324567,-0.273913,In service
fcdae5acb17cd164a212d497d591b2ba,SRC_LDN60283,Epsom Race Course ,51.313482,-0.253523,In service
111d10c784b62405e0ce2f721ccc1acc,SRC_LDN60284,Euston Station Car Park 1,51.527632,-0.132849,In service
9800a941e051517633763a1de894bdd2,SRC_LDN60285,ExCeL London Exhibition Centre 1,51.507979,0.027732,In service
a38b49209472b0772d3937c7ec229295,SRC_LDN60286,Exchange Shopping Centre Car Park 1,51.463980,-0.216975,Out of service
7f35b00da0f2864d5bd499a013bd8a63,SRC_LDN60287,Exeter Street,51.511797,-0.119935,In service
5ecf438e3ba6480cc3a438114d08f6c5,SRC_LDN60288,Fairfield Road,51.409197,-0.299860,In service
0e6a5ac64d865d6ac07c2fce64d7b1ba,SRC_LDN60289,Fairfield Road Car Park ,51.513900,-0.472019,In service
74a026491d88fb1a903fa60bcdb5fed2,SRC_LDN60291,Featherstone Terrace Car Park,51.503302,-0.383114,In service
f807d346ea8dca278c97b975e1f81580,SRC_LDN60292,Fleet Road,51.553554,-0.162209,Out of service
b8e4ffcba1f8184a704c00fe3ba67999,SRC_LDN60293,Fore Street ,51.614933,-0.064182,In service
0db1bf9a0326038fe66d8a95af74919b,SRC_LDN60294,Francis Street 1,51.495977,-0.137269,In service
e7cc4e909f739405272e79cfa00367f3,SRC_LDN60295,Frankham Street car park,51.477174,-0.024658,Out of service
e2f5bebf17a82cde2f8f86fee5a83e22,SRC_LDN60296,Garnet Road car park,51.398009,-0.097391,Out of service
679b4e067ae5950e56c31ced459a841d,SRC_LDN60298,Gatwick Airport North Terminal,51.160771,-0.175473,Out of service
ae5314a8da1e6872ec5b45d207e97671,SRC_LDN60299,Gatwick Airport South Terminal,51.156806,-0.159427,Out of service
92438c080af2aea5eab3352f8cc07875,SRC_LDN60300,Genotin Road,51.650837,-0.079320,In service
004978819088d183a8f9841c6d2aa432,SRC_LDN60302,Gomm Road,51.495448,-0.053228,In service
f33d24234403ab352c4fcaaa86d9aedf,SRC_LDN60304,Grainges Car Park,51.545902,-0.481663,In service
753cfb115e2db521cd069a1ba64a1aa1,SRC_LDN60306,Granville Gardens Car Park,51.413467,-0.124115,Out of service
58391e8604e4fc624fdb8114d42d1b65,SRC_LDN60307,Green Lane Car Park,51.611882,-0.427425,In service
7001d40712221de0d30fe64a620b1a65,SRC_LDN60308,Greencroft Gardens,51.545506,-0.180143,Out of service
16f60abada0c6e46aec7be29a16d05f1,SRC_LDN60309,Greenland Street,51.538454,-0.141014,In service
e47bd79901f90f2cc539e45c205b4800,SRC_LDN60311,Harlequin Shopping Centre,51.655235,-0.392357,In service
82ac5ef22d6c457c4b4b0ba73f0ed930,SRC_LDN60312,Harrow Civic Centre Car Park,51.589941,-0.332906,In service
9504c1af6b347e373fac1baceabf46ef,SRC_LDN60313,Hatfield Road Car Park,51.506722,-0.585805,In service
22764440b2c9f2fb903ce8957a2aa01f,SRC_LDN60315,Heathrow Airport Terminal 1,51.472202,-0.452016,Out of service
d8cbeb88c52aacb0c5087b874d44a229,SRC_LDN60316,Heathrow Airport Terminal 3,51.471399,-0.455254,Out of service
b7545f7b47b6048a7b6409bc345d2a9c,SRC_LDN60317,Heathrow Airport Terminal 4,51.459190,-0.445245,In service
378d72809abd14a5b67378228e9304e6,SRC_LDN60318,Heathrow Airport Terminal 5,51.472410,-0.490022,Out of service
a933845584061f71dcaf5044998c7980,SRC_LDN60319,Herschel Car Park,51.507711,-0.594780,Out of service
99e8052e09a34539245a1c7af9617fe3,SRC_LDN60321,High Street Purley,51.337792,-0.115663,In service
75e785cc9a3945b6e57db6e924db2f28,SRC_LDN60322,Highgrove Pool,51.580227,-0.409178,In service
03250ff73b1415d706a3bbdcaab0f475,SRC_LDN60324,Hillingdon Sports and Leisure Complex ,51.552936,-0.467928,In service
bc80062ea0785aa09feff108dea55ed2,SRC_LDN60326,Holbeach Road Car Park,51.446872,-0.021691,In service
64fdc1ccef34439fd0abe59a5fae6869,SRC_LDN60327,Holborn Studios,51.533920,-0.092738,Out of service
71a8117eb8bb945afdcd7551e28a6b53,SRC_LDN60328,Holland Street,51.506937,-0.100710,In service
d0b416a4ccac7ca256e9e0b8d137ec0b,SRC_LDN60329,Homerton Hospital Car park,51.549749,-0.045288,In service
df3c83cabeab2f43401dc6a7006c2d2a,SRC_LDN60330,Hook Road Car Park,51.367871,-0.306275,In service
7493594cefaf0a08a47135ea019ac24a,SRC_LDN60331,Horseferry Place,51.482478,-0.013410,In service
d05854f0a3eb6b2b5a879183bee5b54c,SRC_LDN60332,Horseferry Road,51.494795,-0.130243,In service
0e8970a411a619a5812f91322963ef99,SRC_LDN60333,Horselydown Lane,51.502992,-0.076609,Out of service
9e2a64855e05b663520ccbc2581b7998,SRC_LDN60334,Ikea Croydon,51.379884,-0.123865,In service
c28d7fcab728585c954bfc481edb2f43,SRC_LDN60335,Ikea Wembley 1,51.553277,-0.260264,In service
6fb46146d54b9533b525dedc9308db3f,SRC_LDN60336,Ilford Town Hall Car Park,51.558409,0.074567,In service
f768624b1f592ea6c9b2d6b7174e38f2,SRC_LDN60338,Jemca Edgware Road,51.580783,-0.242659,In service
09a263c7643feee92b371e16cc0632e2,SRC_LDN60340,Kempton Park Race Course,51.418503,-0.408629,In service
c36342aacc12bde610850d6ba7300a3e,SRC_LDN60341,King George Hospital 1,51.580545,0.112121,In service
be5bc41c9ce398d8e5324b70cf066daa,SRC_LDN60342,King John Court ,51.524110,-0.078978,In service
4ad38ecf2884a47a5efa657f3358e635,SRC_LDN60343,Kings Mall Car Park,51.493964,-0.229058,In service
2c40de1f33e9ccb8dffd2f3cc6a0c903,SRC_LDN60344,Kingsbury Road Car Park,51.584958,-0.277429,In service
b264c38fe3c4092efab48ab1ce030329,SRC_LDN60345,Kingston University - Kingston Hill Campus,51.429188,-0.263097,In service
86b0d735b14afc1f1c64986ef01afc22,SRC_LDN60346,Kingston University - Knights Park Campus,51.405446,-0.300358,In service
f88ed1baa2d998584a6d7a861b7a2055,SRC_LDN60347,Kingston University - Penrhyn Road Campus,51.401733,-0.302897,In service
22052ed6db7561a2a8abc3e50d68f829,SRC_LDN60348,Kingston University - Roehampton Vale Campus,51.436945,-0.251969,In service
0f29a3092aa170140432866b7c7e0ad9,SRC_LDN60349,Kitto Road ,51.468059,-0.044215,Out of service
7149244de63a0baa9bd91ff165cfaf79,SRC_LDN60350,Lakeside Shopping Centre,51.489372,0.282178,In service
9407c90c49bf04f8b59677647ef56522,SRC_LDN60351,Langley Leisure Centre,51.499402,-0.535276,In service
1f5b519cde67ac0d0fcab419aa3048a4,SRC_LDN60353,Leigh Hunt Drive Car Park,51.630679,-0.127334,In service
755e7babe12f5f5b55756943fab23a2c,SRC_LDN60354,Leinster Gardens,51.513484,-0.183624,In service
ab7902a82898c827ae39f10473cd9888,SRC_LDN60355,Lewisham Shopping Centre CP,51.462765,-0.010682,In service
f1ec6f11fdca959b087365bff349da2a,SRC_LDN60356,Lincoln's Inn Fields,51.515276,-0.117067,Out of service
82eeb7c49f8acc2d9b7ce8287ea8fea0,SRC_LDN60357,Lincolns Inn Field,51.517124,-0.116227,Out of service
602852260c81b93a01693165f1ae9dd7,SRC_LDN60358,Lion Green Road car park,51.319157,-0.140236,Out of service
9643ea653fa4c97e6c0b01346ab1ad6e,SRC_LDN60359,London Road Car Park,51.538721,0.077796,In service
347d36720bafa2296c3c9eeb2099aa7a,SRC_LDN60360,London Wall Car Park 1,51.517667,-0.095262,Out of service
53d3eeaf4d7a0111edebc65644961762,SRC_LDN60361,Loughton Station Car Park 1,51.640564,0.053730,In service
16396618378b70abe31493ead61ca631,SRC_LDN60362,Lower Addiscombe Road,51.381035,-0.071207,In service
00ded208a2a2a932217ed8cc9c13c1d6,SRC_LDN60364,Magdalen Street,51.503725,-0.081809,Out of service
a4cd7b365b8116dc933969a17d33c9e8,SRC_LDN60365,London Olympics Media Centre 1,51.547876,-0.024784,In service
78f9c02a11b92faecdfc0b1e52fad018,SRC_LDN60366,Malet Street,51.522463,-0.131244,Out of service
de288fe869dbbbdd91c4f8f89886f647,SRC_LDN60367,Marlborough Road,51.494910,0.073642,In service
c0f43f92577e6a9e94982dfda4565340,SRC_LDN60368,Messeter Place,51.450070,0.059433,In service
3bc8e52202b74e5845ea52ee395623e1,SRC_LDN60369,Mill Lane,51.551246,-0.203050,Out of service
cb9337bc8a0cde6ee31a94a201f0333d,SRC_LDN60370,Millennium Hotel,51.510379,-0.150646,In service
ccebcec8775c71ca0c3e559870894dc4,SRC_LDN60371,Minories Car Park 1,51.510492,-0.073354,Out of service
0fb8280ea2d4c3dea9db1c1c7ffa4581,SRC_LDN60372,Montagu Mansions,51.520476,-0.157963,In service
34dc54d96373b2263b664f8dd1e628ac,SRC_LDN60373,Montem Leisure Centre,51.510251,-0.608767,In service
3f4718c3fe9e06f834777e39835e3dfd,SRC_LDN60374,NCP Aldersgate Street - Level 1,51.518690,-0.097338,Out of service
b988bce88d7ae76fef0f2e0f3e809c0f,SRC_LDN60375,NCP Allders,51.374917,-0.099124,In service
58ca3758d5e6daea6802485a22f4d1ed,SRC_LDN60376,NCP Arthur Court,51.516192,-0.188921,In service
72342f16da6da710f86b49bfad61dff6,SRC_LDN60377,NCP Berners Street,51.518018,-0.137868,In service
72ff247339a16a5e0850f7801504ead1,SRC_LDN60378,NCP Brewer Street,51.512340,-0.134814,In service
e090dc0d50bec3a36eb5d6371fd6030e,SRC_LDN60379,NCP Buckhold Road,51.453562,-0.193776,In service
54d22f8632eb479849f7bad14f024ce5,SRC_LDN60380,NCP Cadogan Place,51.497429,-0.158589,Out of service
96f6441cbed455698217b98f989f0d90,SRC_LDN60381,NCP Carrington Street,51.505649,-0.146673,In service
04b9894bec8fb548d80dac08563db359,SRC_LDN60382,NCP Cleveland Street,51.520271,-0.137604,In service
293a3ddba6d1a6bb1f2b2dc364cfa5f2,SRC_LDN60383,NCP Crawford Street,51.519367,-0.162389,In service
35b07af7d3ff07f8d3a4403e3c302808,SRC_LDN60384,NCP Dingwall Road,51.377317,-0.095159,In service
8a913f4ab05bdaf0e0211f5914910c01,SRC_LDN60385,NCP Docklands City Harbour,51.494884,-0.014758,In service
f77cf08ee99fa7701632a59db043b925,SRC_LDN60386,NCP Epsom The Ebbisham Centre,51.334285,-0.265839,Out of service
a9ed0cdd23029e0981337ff9a45f6321,SRC_LDN60387,NCP Fairfield,51.409843,-0.300986,Out of service
aea1d6f516dac44d20b2943846c1a8eb,SRC_LDN60388,NCP Fairfield Halls,51.373142,-0.093350,In service
915084e1490f0b0903e69748e0ceacd5,SRC_LDN60389,NCP Farringdon,51.524615,-0.109532,In service
f16faf5d680d7b88e2e157c1c137c497,SRC_LDN60390,NCP Finsbury Square,51.521397,-0.086342,In service
82be72a97fdbbdaceed45092ac9d3520,SRC_LDN60391,NCP Flightpath (Heathrow Airport),51.482996,-0.453653,In service
ad0e54281f5a23cf8d1120dadd57a727,SRC_LDN60392,NCP Great Eastern Street,51.523795,-0.080072,In service
9a4bee6584f98d9c0cea9eab4e89dfa2,SRC_LDN60393,NCP Grosvenor Hill,51.511188,-0.146102,In service
ac0e9478875811daa1da261d75df0f52,SRC_LDN60395,High Street NCP Car Park,51.333460,-0.269645,In service
59843bfb2ca080a23bcbbc5278fa6982,SRC_LDN60396,NCP Hounslow West Station,51.472887,-0.384837,In service
d82c780d2a2961ea0e0d62a13c024c81,SRC_LDN60397,NCP Lawn House Close,51.500274,-0.010720,In service
70e1a3c032f8b2a08d1ee55d5ceb23ef,SRC_LDN60398,NCP Marble Arch,51.514844,-0.160121,In service
b7d5b31daa4c9f6cc67772a4daf5aeea,SRC_LDN60399,NCP Marylebone Road,51.522714,-0.159083,In service
e785fe017d50ed8e46e6ed13f19a3cdf,SRC_LDN60400,NCP North Greenwich Station,51.498749,0.003880,In service
e12e5a207c1c51bdf37f1d829294669a,SRC_LDN60401,NCP Park Road,51.525931,-0.162370,In service
e0e5486446ed62ce06d20e36f5768613,SRC_LDN60402,NCP Pavillion Road,51.499683,-0.160674,In service
6dfde8aa3dd913dd25bd717faee1bf79,SRC_LDN60403,NCP Perivale Station Car Park,51.536579,-0.323927,In service
137b81b130a9003977a2f513032a738a,SRC_LDN60404,NCP Portman Square,51.516570,-0.157789,In service
48997e34bfde15452d4f69de04b87f57,SRC_LDN60405,NCP Richmond Station,51.462538,-0.300916,In service
35bb97f361bcca162714c1c41fcfa775,SRC_LDN60406,NCP Saffron Hill,51.521198,-0.106776,In service
21f13a5b34b547642228fd4e9fc56a15,SRC_LDN60407,NCP Shaftesbury,51.516387,-0.125223,In service
d1b8c0f3baa7b05c8cea547e188a5a7c,SRC_LDN60408,NCP Sherwood Court,51.518164,-0.163101,In service
5da361ad62b75317c5c92cc168f95877,SRC_LDN60409,NCP Snowsfield,51.501349,-0.087182,In service
6c50a85bd85a359ae0225a9d9a11af0c,SRC_LDN60410,NCP St James Road,51.408171,-0.304125,In service
6426551eee37e119b15fc51e52b36c4e,SRC_LDN60411,NCP Victoria,51.491892,-0.150198,In service
54778faebfb990828ec9d581a3a5c7cb,SRC_LDN60412,NCP Vintry Thames Exchange,51.510372,-0.092382,In service
17c4ef97b946c1798e10e7f9086802e2,SRC_LDN60413,NCP Water Gardens,51.517614,-0.167014,In service
58fc31760d02cfe624d886a0f0f0f197,SRC_LDN60414,NCP Watford Station,51.656570,-0.417841,Out of service
2625e71721bf8a56e5b453ff7b74748e,SRC_LDN60415,NCP West 12 Centre,51.505419,-0.229565,In service
e865e34e39227944864fd3e4ffdf78da,SRC_LDN60416,NCP Whitgift,51.377711,-0.100029,In service
dbaf53621ccb49960fd0a32093c38be2,SRC_LDN60417,NCP Woburn Place,51.523922,-0.126326,In service
89da44bc2f3ef61b413fe4976fd21114,SRC_LDN60418,NCP Young Street,51.501282,-0.189469,In service
1b3ce0eebea29cfc50ad439503cbeddf,SRC_LDN60419,Netherwood Street,51.545173,-0.200491,Out of service
1ba7439a02d9539077510205dd05123f,SRC_LDN60420,Newbury Park Station Car Park 1,51.575981,0.090643,In service
1530ff634b23607909249284ac7eda45,SRC_LDN60421,Newham University Hospital 1,51.523713,0.034153,In service
e57942bbfd46919c7d2c7b73bf09fb1c,SRC_LDN60422,Ancaster Nissan Dealership,51.411298,0.025637,In service
4c320a31119cd5d8114fc81267c53f23,SRC_LDN60423,O2 Arena Car Park 1,51.498076,0.004312,In service
2c6ac01ac0d8ea3ae36555a9d181f9e5,SRC_LDN60424,Oakwood Station Car Park 1,51.647944,-0.130757,In service
28ce99f02d994ec5227307d28db232e5,SRC_LDN60425,Oasis Academy,51.639866,-0.038479,In service
dc12f8db498b3f86414155559fd0b476,SRC_LDN60426,Octink,51.483866,-0.314525,In service
89c0590cd1499525b298fe68f263ed07,SRC_LDN60427,Oldhill Street ,51.569820,-0.063718,In service
bfe897be4cfac69ab90dab87238a7c57,SRC_LDN60428,Ondine Road,51.463002,-0.072792,In service
9e08261c0d1ff04f85381fa86fce1087,SRC_LDN60429,Orchard Village,51.528936,0.170689,In service
12bb430be526cebb26b7248683b51fab,SRC_LDN60430,South Street 1,51.528291,0.168611,In service
ffe367e29927354b95526f42fab1e71a,SRC_LDN60431,Palace Gardens Multistorey Car park,51.651689,-0.084691,In service
c2a2c749a957b42d69460247e0482569,SRC_LDN60432,Palace Street,51.497298,-0.139505,In service
3db85d1c2f2e830eed7246c33fa19edd,SRC_LDN60433,Park Street,51.507214,-0.097831,In service
2fc2919f32a06435d6505250da0b6047,SRC_LDN60503,Parkland Road,51.595472,-0.110952,In service
33783ac43a03292abd2bb11038316e90,SRC_LDN60504,Pearcefield Avenue Car Park,51.440645,-0.055286,In service
37e58106dd40b0bae179dc560868ad19,SRC_LDN60505,Pembroke Road Car Park,51.573101,-0.414175,In service
a433e9ef4ab45e38b9b9d31b170e9550,SRC_LDN60506,"Penge East Station,",51.419055,-0.055397,Out of service
f956db2b3d14b0cc2c7bba13d6bc2156,SRC_LDN60507,Pitfield Street,51.529480,-0.083466,Out of service
a201af0dc8f57ebbf253e6f8c0348480,SRC_LDN60508,Premier Inn Dagenham,51.530900,0.148492,In service
66d8acbdb9f1cd14f322c69f9fb9a896,SRC_LDN60509,Preston Road Car Park Car Park,51.573459,-0.295398,In service
ec25c33da3cb77a325b10d78b388ae5f,SRC_LDN60511,Pulross Road,51.464324,-0.118734,Out of service
bcdf5f271e060056af7ca0548c35a98a,SRC_LDN60512,Pump Lane Car Park ,51.506830,-0.415583,In service
c3be52b54804f58495806bd08faba616,SRC_LDN60513,Purley Railway Station Car Park,51.336998,-0.113801,In service
4bdb3b694acca9162c97f75efe9faca1,SRC_LDN60514,Putney Leisure Centre,51.463908,-0.228811,Out of service
dfc2075e6b1a0446059832d3f11aee8f,SRC_LDN60515,Abingdon Car Park 1,51.497935,-0.126383,In service
a990ce495c24bb7772fcc56b7a82f1d0,SRC_LDN60516,Q-Park - Butlers Wharf Car Park,51.502290,-0.073815,Out of service
8655db152e8c05552ffd8b0bdb22b8f4,SRC_LDN60517,Harley Street Car Park (Q-Park) 1,51.517948,-0.145338,In service
b8b58dc4043e2bcec02e62d5001ef153,SRC_LDN60518,Q-Park - Knightsbridge,51.499890,-0.157251,Out of service
29ebaed404bb72a1efe96d16451ccec2,SRC_LDN60519,Q-Park - Old Burlington Street,51.510623,-0.140505,In service
294dc6d1da8b85b2f8f7a281e4a205df,SRC_LDN60520,Q-Park - Oxford Street,51.516177,-0.145972,In service
1eaba980045d3437ae2008095c27e12b,SRC_LDN60521,Park Lane Car Park (Q-Park) 1,51.509356,-0.156480,In service
beeb1024d6d782530220e25ff8b80caa,SRC_LDN60522,Q-Park - Pimlico Car Park,51.490123,-0.146337,In service
42a0872e8bb68ad51fbc39fa6f4568bf,SRC_LDN60523,Q-Park - Queensway Car Park,51.510900,-0.186926,Out of service
f173c3ae7b921bf55b81d800a6ba1a17,SRC_LDN60524,Q-Park - Soho Car Park,51.514249,-0.137215,Out of service
82767bd68d0da5c02df5f04d13f22540,SRC_LDN60525,Q-Park - St Johns Wood,51.534281,-0.173050,In service
f8a3288d15f7971765d63a761b5979cc,SRC_LDN60526,Trafalgar Car Park 1,51.506944,-0.129703,In service
f07b29d1e11aa4474b8262b11302326a,SRC_LDN60527,Chinatown Car Park 1,51.512381,-0.129480,In service
45b4a8b2d70e7e2625321550a034df00,SRC_LDN60528,Queens Drive,51.565873,-0.101732,In service
d3a1e553f6624c0051892aef67f38bca,SRC_LDN60529,Railway Avenue,51.501693,-0.052415,In service
cb24edc0ec341e14fe5108ee6b1493cb,SRC_LDN60530,Raphael Street,51.501170,-0.162646,In service
88c6fccd9f242ea10362555ce8306f3a,SRC_LDN60531,Rayners Lane Station Car Park 1,51.575124,-0.370840,In service
026573d44030835fe74c624be25113a1,SRC_LDN60532,Red Lion Square,51.519425,-0.118929,In service
6ac808d502e34c3ca3daa2e3663d2be8,SRC_LDN60533,Redbridge Station Car Park 1,51.576367,0.045408,In service
1054e41eabf481cafbc7b532ca0d1da0,SRC_LDN60534,Regents Park Road,51.540127,-0.157544,Out of service
e440113dde9d989caff2c0f405ad1334,SRC_LDN60535,Roan Street,51.479899,-0.013494,Out of service
760e8964cb1ca4375ec8eff22e08346c,SRC_LDN60536,Romford Multi Storey Car Park,51.580315,0.180686,In service
7b22e82dc419d460a9f3deddc33b54d8,SRC_LDN60537,Rosslyn Hill,51.554941,-0.173318,Out of service
001fca6b304504b620c727b498b2d814,SRC_LDN60538,Sainsbury's Beckton 1,51.521278,0.065888,In service
2e4d3f59fa26af64eef3b0795b775ec1,SRC_LDN60539,Sainsburys Camden,51.540384,-0.140792,In service
a6734d9b7f042da7d5ec0c81964e21a1,SRC_LDN60540,Sainsburys Chiswick,51.493382,-0.265930,In service
8412f42034af852f237e3af8209f3a6f,SRC_LDN60541,Sainsburys Cromwell Road,51.495067,-0.188232,In service
8a4053dfac1f6922a81aed8ecaad4792,SRC_LDN60542,Sainsburys Dulwich,51.462595,-0.084700,In service
d1599afc9321bf94d0b209551ad6e87f,SRC_LDN60543,Sainsburys Greenwich,51.489378,0.014907,Out of service
73bc8649785cc47660ae5dc3b802cda6,SRC_LDN60544,Sainsburys Islington,51.534041,-0.108522,In service
2ad6024537d2a59e476cee0d869ae028,SRC_LDN60545,Sainsburys North Cheam,51.372055,-0.223896,In service
535ce4910ea090891dcd3608e58666b0,SRC_LDN60546,Sainsburys Sydenham,51.430501,-0.034238,In service
97166ea15e11e6be7b8e99043ba57037,SRC_LDN60547,Sainsburys Wandsworth,51.454382,-0.190980,In service
8b5e7836dd068601d1d820b4147fde37,SRC_LDN60548,Sanderstead Road car park,51.347884,-0.094643,In service
19742ececd19c412f44339879bab3675,SRC_LDN60549,Sandown Park Race Course,51.374159,-0.361431,In service
42031fb072f8a0d18377c3bd5db9cce0,SRC_LDN60550,Sardinia Street,51.515073,-0.118431,Out of service
e403d446c5344ea7dc61c15d58df0244,SRC_LDN60551,Scovell Road,51.499959,-0.099041,Out of service
e485b3fcc9fe53fb1ce882e40eaef046,SRC_LDN60552,Seville Street,51.501820,-0.159335,In service
6c516fdf5c23e8c93913d9f36bfa562a,SRC_LDN60553,The Mall Wood Green East Car Park,51.594753,-0.109336,In service
5e48c48268be71bffb710fb4ab481d5b,SRC_LDN60554,Shotfield Road,51.358314,-0.151247,Out of service
3df58b4499180375a7d02955ec72170c,SRC_LDN60555,Slaithwaite Road Car Park,51.458857,-0.011413,In service
3282c6bbfd18b23b5e39f280072f9a1d,SRC_LDN60556,Smithfield Market Car Park 1,51.518753,-0.101256,Out of service
cdc53a4e56a6f617c0fd7874ee599acc,SRC_LDN60557,Snaresbrook Station Car Park 1,51.581030,0.021282,In service
5e2008c65f6812a893e569afdfdd7d4b,SRC_LDN60558,South Croydon Rail Station Car Park,51.362698,-0.093697,In service
26179e937090f96530638ecd8c6d3910,SRC_LDN60560,South Mimms Service Station,51.687097,-0.221112,In service
22f382a8f889318ed4768189c051f4f2,SRC_LDN60561,Southampton Street,51.510957,-0.121972,In service
da26364a9b73621681a370d3427856ef,SRC_LDN60562,Spencer Park,51.457340,-0.174670,Out of service
ac63ecc6419544f4db7d546161587052,SRC_LDN60563,Spenser Street,51.498096,-0.137096,In service
296dbdbbfda1cb172a55d481607e44dd,SRC_LDN60564,Springfield Hospital,51.436776,-0.169619,In service
168cfc15890e2a67a5657b05b1b52ba9,SRC_LDN60565,St Albans Road,51.560963,-0.150167,Out of service
a4d9a5fe8f0cd73f8ceb1195d25fa8c3,SRC_LDN60566,St Georges Road car park,51.409188,-0.024598,In service
7dd93050e5b97c8bb813b6632c626a9d,SRC_LDN60567,St Heliers Hospital,51.380319,-0.182822,In service
0d3d81a9e226a7158a77a5b862311b4e,SRC_LDN60568,St Johns Avenue,51.459622,-0.217764,In service
5a704ff416494bc5729eb71bdf39657c,SRC_LDN60569,St Johns Road carpark,51.553774,-0.297215,In service
07c781a7cd237090ef55980444633c1b,SRC_LDN60570,St Marks Hill,51.393430,-0.303376,In service
cad720d4655d44867660372097a3188b,SRC_LDN60571,Stanmore Station Car Park 1,51.619673,-0.303085,In service
6f56fe4f5c645fcd570aa5c5c7dd55da,SRC_LDN60572,Stoneleigh Road Car park,51.591793,-0.069454,In service
46112180eeb6daf81ab9b4bb7f5ddf39,SRC_LDN60573,Store Street,51.520009,-0.131301,Out of service
1a7064c205020fd7fd50a987624d2031,SRC_LDN60574,Stratford Centre Multistorey Car Park,51.540966,-0.001188,In service
91f2bc0179b4605a3165bd95db7a4fcb,SRC_LDN60575,Stratford International Station 1,51.545432,-0.006314,In service
83edf051a3d985d85db8fb942bc106dc,SRC_LDN60576,Streatham Common Railway St Car Park,51.419067,-0.135823,Out of service
1b246c2b83b7f322480a19abdd2ceff6,SRC_LDN60577,Summerland Gardens Car Park,51.590047,-0.142330,In service
738d8dbf498bcf095aa242da06244eff,SRC_LDN60578,Sutherland Avenue 1,51.527633,-0.182701,Out of service
ee9546012646a84ed8cd074d17ce2a8a,SRC_LDN60579,Sutton Hospital,51.346947,-0.193261,In service
66f3362b9381541bbcadcefe1f508438,SRC_LDN60580,Sutton Life Centre,51.378340,-0.202630,In service
d1d79fdf836b28e5501b47c903d434bc,SRC_LDN60581,Sutton Rail Station Car Park,51.359959,-0.188569,Out of service
ad9f0ac4e58351122f79aee963d61d95,SRC_LDN60582,Sydney Road CP,51.447834,-0.411798,In service
9903f53eb5f12f84f496530b0dc2526c,SRC_LDN60583,Talbot Road,51.516122,-0.204245,Out of service
a2f85694da56232b78977a73c590cd5b,SRC_LDN60584,Temple Place 1,51.511410,-0.113206,Out of service
4fcf86be9106bf001cd5c131c72c5aae,SRC_LDN60585,Thames Innovation Center,51.496152,0.142117,In service
91c029af27d1e60442759b7d1c0671d1,SRC_LDN60586,The Bittoms Car Park,51.406136,-0.305207,In service
426165c5fae9789210ca65f8eea30cf5,SRC_LDN60587,The Centre Car Park,51.519667,-0.614173,In service
4c7b1383e7ffeb578a063b5e3dccced6,SRC_LDN60588,The Chimes Shopping Centre,51.545246,-0.474719,In service
36317a78f97d1d6d7a02333ad01186fa,SRC_LDN60589,The Crystal Car Park 1,51.507776,0.015488,Out of service
9f564390336e7e1b21904ddeab9b8d32,SRC_LDN60590,The Cut,51.503518,-0.106155,In service
5cedc21c731cd7a75ed1cd89be0eff97,SRC_LDN60591,The Glades Shopping Centre,51.404013,0.017320,Out of service
b3fb41f3793130c23bc22f6f52024579,SRC_LDN60592,The Mall Wood Green Car Park East,51.594837,-0.109505,Out of service
b480566a35a0a9132956afa517aaee12,SRC_LDN60593,The Mall Wood Green Car Park West,51.594214,-0.109892,In service
7e08c609c27eed772e27ea3f698e0e0d,SRC_LDN60594,The Rose Car Park,51.407028,-0.293542,In service
42a2f3d8b0671e4d84d140c138ce0d89,SRC_LDN60595,The Royal Free Hospital,51.553224,-0.165309,Out of service
ff76ffce183c11f84489bbd0a34a2fcf,SRC_LDN60596,The Spa Car Park,51.409051,-0.037862,In service
3e9d1fa3f1ef4c2e58eb949c58966a28,SRC_LDN60597,Thorpe Park Car Park,51.405217,-0.510193,In service
aaf68231a75ec5beb026ac75a088cf16,SRC_LDN60598,Times Square Car Park,51.363951,-0.191472,Out of service
5bad1ee29d26170d91491dab90d8fd3c,SRC_LDN60599,Tolworth Hospital,51.379310,-0.290247,In service
3ee4085ce6f44d7591dbacfd9b0613ac,SRC_LDN60600,Tolworth Sports Ground,51.375681,-0.275195,In service
6b92eb77d8570eda9ec81399569a5183,SRC_LDN60601,Tottenham Green Leisure Centre,51.588822,-0.073636,Out of service
303d0012fd8d7ef9e9f6917dc6e938f0,SRC_LDN60602,Tower Hill Car Park 1,51.508797,-0.080198,In service
0f4213ed2bd688202f03003f0af35358,SRC_LDN60603,Toyota Bromley,51.422136,0.022376,In service
bebf4e0937d36653f44f9c7eb4e715ea,SRC_LDN60604,Toyota Burgh Heath 1,51.315568,-0.231359,In service
5cb9bfe47af6ab2014bd3c69b9fec8a2,SRC_LDN60605,Toyota Croydon ,51.361152,-0.118224,In service
e431825e9eb720f669d56ad4aeb2f6e0,SRC_LDN60606,Toyota Sidcup ,51.416093,0.123041,In service
3e642a870bd8799f679063bea1a62eda,SRC_LDN60607,Toyota South Woodford,51.616686,0.026434,In service
d71ff3a7adec579d58791adbae577a4f,SRC_LDN60608,Trafalgar Street,51.488118,-0.089810,In service
73d90baa96c1e2323fbfac0b5d4f0504,SRC_LDN60609,Treaty Shopping Centre Car Park Level 1b,51.467617,-0.364651,In service
107037604f12bc8ae27e444773372fef,SRC_LDN60610,Underhill Road,51.454667,-0.070149,In service
33d0632af613a54c249a283d1cb70303,SRC_LDN60611,Union Street,51.409419,-0.305229,In service
934a63c99c23e79bb360eab45cba1eb8,SRC_LDN60612,Upper Grosvenor Street,51.510069,-0.155515,Out of service
6201a8c498ddef92d0ac8e9f0fc5b0c1,SRC_LDN60613,Upper Ground,51.506840,-0.111968,In service
fe4e27da08460834e20042b604be6596,SRC_LDN60614,Victoria Station,51.493936,-0.144641,Out of service
9d82faba72747d15ec59cb71049a6ef8,SRC_LDN60615,Waitrose Beckenham,51.411878,-0.027344,In service
43a4721c29acf68a78d2502f8f994d1b,SRC_LDN60616,Waitrose Esher,51.367886,-0.366870,In service
96d68b2124fb738686479665e789c1ff,SRC_LDN60618,Waitrose Fulham,51.479952,-0.199402,In service
71d85662a2df87a0f5c7b88db4587969,SRC_LDN60619,Waitrose Hampton,51.415676,-0.373681,In service
76ec7d52f75c6ff4412a0c0ff59a580f,SRC_LDN60620,Waitrose Harrow Weald,51.605591,-0.339510,In service
ae8bdbac023f541ce9142fdba96989d7,SRC_LDN60621,Waitrose Mill Hill,51.607456,-0.209439,In service
298f48971723a9b9b49c7fcceab49439,SRC_LDN60622,Waitrose Northwood,51.610603,-0.424552,In service
4668c712bb7bf79b28f0489afb7ecc58,SRC_LDN60623,Waitrose South Harrow,51.567485,-0.352456,Out of service
afb8f73eebc0510a4bdb5fcdd0b02d26,SRC_LDN60624,Waitrose Surbiton,51.394064,-0.305509,In service
2a3b24ea06db696d1098c0e93d2abfc2,SRC_LDN60626,"Waitrose, South Woodford",51.595656,0.023650,In service
4398a03d4e82ecb8965ee856c25b6ef1,SRC_LDN60627,"Waitrose, West Ealing",51.513170,-0.322495,In service
8c353766f237a7a315fb686066b71f20,SRC_LDN60628,Waldeck Road,51.589808,-0.097140,Out of service
6f361cb8c6e0b33c89cae59a1d3f944a,SRC_LDN60629,Wallington Library,51.358223,-0.151135,In service
fed9797e75393322ff5d5beddf9773be,SRC_LDN60630,Wandle Recreation Centre,51.451558,-0.193279,In service
563584468af77b2fc03ffa42d5da94cb,SRC_LDN60631,Wandle Road car park,51.369872,-0.101301,In service
aafb1ce4fed408a5843cf431a0bbdcb1,SRC_LDN60632,Warren Street,51.523527,-0.142199,Out of service
25de6b51f059080c2444e869d6569876,SRC_LDN60633,Welbeck Street Car Park,51.515665,-0.148817,In service
ddaa79c7e2068512f6c8f49ed14e1f8e,SRC_LDN60634,Wellington Street,51.511756,-0.119634,In service
3aa6ec91cddc6c724c24c73f92d21187,SRC_LDN60635,Welstead Way Car Park ,51.495373,-0.247991,In service
21c5ea7cab8db945fee71cdbb23e69c4,SRC_LDN60636,Wendover Road Car Park,51.535388,-0.246744,In service
ad1b9f5b8b6ae132a75d8f9f87e081cd,SRC_LDN60637,Wesley Avenue,51.504836,0.021208,In service
09f645c9404efed264338ae870a55d96,SRC_LDN60638,West End Lane,51.540812,-0.191766,Out of service
9e14ec35e1dd3fcd6ef3d5e36a09e27a,SRC_LDN60639,West Ham Lane,51.540557,0.002198,In service
1f161b7960fb7791f0bd58b3aceaeac4,SRC_LDN60640,West Middlesex University Hospital Car Park 1,51.474818,-0.326321,In service
d810302a6bb9bc97e7c9662b90a634a9,SRC_LDN60641,Westcroft Leisure Centre,51.368203,-0.157328,In service
62b72f8e81aca76c2d5c5d6b91972850,SRC_LDN60642,Westerley Crescent,51.424676,-0.033856,In service
0dad24dc5419076f64f2ba93833b354e,SRC_LDN60643,Westfield London Car Park 1,51.508353,-0.221973,In service
5eb8b02ddf89ee1ada5553a201c6bc69,SRC_LDN60644,Westfield Stratford City Car Park A 1,51.544374,-0.007372,In service
74428c0a6c8f499e67f96908f425fdd3,SRC_LDN60645,Westfield Stratford City Car Park B 1,51.543897,-0.005614,In service
4c46b998ad7824616843c7cb59369100,SRC_LDN60646,Westpole Avenue,51.650070,-0.148001,Out of service
faf767c2bd95ccb4f4ebc096191df6de,SRC_LDN60647,Whipps Cross Hospital,51.579332,0.001217,In service
5ca1c643db3d33345d55d7316de39e9b,SRC_LDN60648,Whitechapel High Street Car Park,51.516029,-0.072111,In service
82cf0712367108660c5339a4897a728e,SRC_LDN60649,Whitehall Place,51.506489,-0.123741,In service
d7aacb93a8760f4df821d95bf117ec4b,SRC_LDN60650,Whittington Hospital Car Park 1,51.566844,-0.139900,In service
d22ace3cfb8d585d7d667394ecef4e6c,SRC_LDN60651,Wilton Street,51.498977,-0.148413,In service
792efc1687658bdf2e49af5ab8c6d38f,SRC_LDN60652,Wilton Way ,51.545609,-0.062453,In service
25b999dc408ec58676b74b37548d1c7d,SRC_LDN60654,Yoakley Road,51.562228,-0.079449,In service
354ae7ebf242e1e1a1207d7dd1316ecb,POLAR2748,Britwell Community Centre,51.534019,-0.631260,In service
7f2352b1b82f935f04c8267ac5b69f26,NCRA9,The Crystal Car Park 2,51.507442,0.016295,Out of service
4bf2e36242180a431a457dce30c90763,NCRA10,The Crystal Car Park 3,51.507442,0.016295,Out of service
6a10e8d92307cbce55e02b7fd0f801b7,NCRA11,The Crystal Car Park 4,51.507442,0.016295,Out of service
63e508162f005a00ca1574c98280afbf,NCRA12,The Crystal Car Park 5,51.507442,0.016295,Out of service
c6f1991b805af114f0522914c65430b1,NCRA13,The Crystal Car Park 6,51.507442,0.016295,Out of service
b75860f8791ea001473894f416917cf3,NCRA14,Park Lane Car Park (Q-Park) 2,51.508874,-0.154453,In service
e4931f86142f45a9ade8298833c0945a,NCRA15,Park Lane Car Park (Q-Park) 3,51.508874,-0.154453,In service
6b972c99b9d905a36007fe6567ee8e6e,NCRA16,Park Lane Car Park (Q-Park) 4,51.508874,-0.154453,In service
dd9c3090ed48d046d69f44bb3cb5fb34,NCRA17,Park Lane Car Park (Q-Park) 5,51.508874,-0.154453,In service
80728269ecfc59feb9ed6db6058f07cf,NCRA18,Park Lane Car Park (Q-Park) 6,51.508874,-0.154453,In service
a052aaf7dbb36be9fbb477a16b03d2ab,NCRA19,Park Lane Car Park (Q-Park) 7,51.508874,-0.154453,In service
ccb9b7ccbb6cebc7f0c81a1ec0879cd2,NCRA20,Park Lane Car Park (Q-Park) 8,51.508874,-0.154453,In service
c3bb9214431dec7ca7d1ebcfeca73236,NCRA21,Park Lane Car Park (Q-Park) 9,51.508874,-0.154453,In service
16a4664c2fe6f1b9b6d935db470c852e,NCRA22,Park Lane Car Park (Q-Park) 10,51.508874,-0.154453,In service
0b257f255542ad11b2d4d535718b2ae6,NCRA23,Park Lane Car Park (Q-Park) 11,51.508874,-0.154453,In service
33c8c59cdc20e0e78feb6bdc1028c0e7,NCRA24,Park Lane Car Park (Q-Park) 12,51.508874,-0.154453,In service
9a6425cb36dd69d7db5d71a90194436f,NCRA25,Park Lane Car Park (Q-Park) 13,51.508874,-0.154453,In service
297cd8900d7c36de492d67cc2886e76f,NCRA26,Park Lane Car Park (Q-Park) 14,51.508874,-0.154453,In service
19e99970ea5ea8475747b52ab1ccf194,NCRA27,Park Lane Car Park (Q-Park) 15,51.508874,-0.154453,In service
4f7127cb2615c3119d5401089185c7cc,NCRA28,Park Lane Car Park (Q-Park) 16,51.508874,-0.154453,In service
f08a8b395b122e0bb95ca2fe5002c889,NCRA29,Park Lane Car Park (Q-Park) 17,51.508874,-0.154453,In service
50d48506c2c11858f6bc0b0b7c9586e4,NCRA30,Park Lane Car Park (Q-Park) 18,51.508874,-0.154453,In service
154eeb38e48d851e75229e4789d56475,NCRA31,Park Lane Car Park (Q-Park) 19,51.508874,-0.154453,In service
01cfcd4f6b8770febfb40cb906715822,NCRA32,Park Lane Car Park (Q-Park) 20,51.508874,-0.154453,In service
caccf5abd685f38ff89b5ad7bbdcc651,NCRA33,Park Lane Car Park (Q-Park) 21,51.508874,-0.154453,In service
734ed818c476ac6a451f1dd4bc90483e,NCRA34,Park Lane Car Park (Q-Park) 22,51.508874,-0.154453,In service
19cbb0bd10e082c0b90a5ab62a55678a,NCRA35,Park Lane Car Park (Q-Park) 23,51.508874,-0.154453,In service
7a2fe6144e9cc19c76620498e2116d9e,NCRA36,Park Lane Car Park (Q-Park) 24,51.508874,-0.154453,In service
5a534612f7c36aefbc4e815a381e308a,NCRA37,Park Lane Car Park (Q-Park) 25,51.508874,-0.154453,In service
7fb693858c802d676c3ca3a52737fb35,NCRA38,Canary Wharf 2,51.504622,-0.016295,In service
900763d5782a63ace76d387d1f9e3bc8,NCRA39,Canary Wharf 3,51.504622,-0.016295,In service
ab0de82241e387d3de66d8227f3f7f08,NCRA40,Canary Wharf 4,51.504622,-0.016295,In service
9d3c330a0ab614b6ed9bcefa42dd9172,NCRA41,Canary Wharf 5,51.504622,-0.016295,In service
81c4ff81e06c236f16a408089a8cd2ac,NCRA42,Canary Wharf 6,51.504622,-0.016295,In service
445c4cfca9b5ba22dae9baa00e20bde5,NCRA43,Canary Wharf 7,51.504622,-0.016295,In service
01de5617ffc3728cbcbb3c58416f64d7,NCRA48,Westfield Stratford City Car Park A 2,51.544176,-0.006970,In service
9453e74d5030bb8351cdb998b5ac2a65,NCRA49,Westfield Stratford City Car Park A 3,51.544215,-0.007291,In service
cf40231418fb9995bc759a61e0a970fc,NCRA50,Westfield Stratford City Car Park A 4,51.544236,-0.007592,In service
885c1dcea5412ca7c2d45dc77623511e,NCRA51,Westfield Stratford City Car Park A 5,51.544229,-0.007356,In service
8e1b6031314d35dffa354563befb9f70,NCRA52,Westfield Stratford City Car Park A 6,51.544149,-0.007806,In service
82473840ac20e0aaecf29c79b1ae8477,NCRA53,Westfield Stratford City Car Park A 7,51.544203,-0.007163,In service
7a5a3fe4ae33de425d06ac4fe8d097d2,NCRA54,Westfield Stratford City Car Park A 8,51.544155,-0.006916,In service
42bbabf3b75a35941e315cb96dd63645,NCRA55,Westfield Stratford City Car Park B 2,51.543836,-0.005532,In service
e88d73575d8e8da4ee0d70dc1be33270,NCRA56,Westfield Stratford City Car Park B 3,51.543969,-0.005575,In service
d12173b7564ddd0faa485483252398df,NCRA57,Westfield Stratford City Car Park B 4,51.543916,-0.005489,In service
6465832a99843d97c4900c5ea0b11144,NCRA58,Westfield Stratford City Car Park B 5,51.544183,-0.005564,In service
a0b3db98204a0f0a5ab331a32f99123f,NCRA59,Westfield Stratford City Car Park B 6,51.543976,-0.005296,In service
dcdcce4af533fdf8581777e1c954a072,NCRA60,Westfield Stratford City Car Park B 7,51.543942,-0.004952,In service
132f08e1daacca838ead693ef186e689,NCRA61,Westfield Stratford City Car Park B 8,51.544102,-0.005467,In service
0918fb76ac3860293babe192aa243016,NCRA62,Westfield Stratford City Car Park B 9,51.544189,-0.005789,In service
6b727b0adb10456c09ea1455af2b21e5,NCRA63,Westfield Stratford City Car Park B 10,51.543749,-0.004866,In service
4ee603295d6314507a29ffe70cd1bca1,NCRA64,Westfield Stratford City Car Park B 11,51.544336,-0.006347,In service
41ad609da462d2c9e148719b54a2272c,NCRA65,Harley Street Car Park (Q-Park) 2,51.517916,-0.145613,In service
3ccf6d25260d5b103f1481e210b8af58,NCRA66,Harley Street Car Park (Q-Park) 3,51.517916,-0.145613,In service
85d567adc659b844b397c696a7cc6f1d,NCRA67,Harley Street Car Park (Q-Park) 4,51.517916,-0.145613,In service
df88ecdcc18713402ce99a6de23430e2,NCRA68,Harley Street Car Park (Q-Park) 5,51.517916,-0.145613,In service
4e2da3f6f3eec707a0ca5eb502226533,NCRA69,Harley Street Car Park (Q-Park) 6,51.517916,-0.145613,In service
e93dc65065021e1bbdcf1b4adecd4d22,NCRA70,Harley Street Car Park (Q-Park) 7,51.517916,-0.145613,In service
ae6f3ae4807e6e1fa3c3b9b8418b6783,NCRA71,Harley Street Car Park (Q-Park) 8,51.517916,-0.145613,In service
061573ca4ba2b0e068e0614d6d17ac3e,NCRA72,Stratford International Station 2,51.545403,-0.006370,In service
157d6c765acb6d1b2d0f7d7f6c4ca16a,NCRA73,Stratford International Station 3,51.545430,-0.005855,In service
e24d10bcd13335d6929198e462e39f38,NCRA74,Stratford International Station 4,51.545483,-0.006456,In service
48e1abf908fd5beddce8f6e9fa6df484,NCRA75,Stratford International Station 5,51.545670,-0.006499,In service
d27930e21238b66c99a16827307fc263,NCRA76,Stratford International Station 6,51.545643,-0.006413,In service
6a1d8c02829786acf35e5f5f966ab4d6,NCRA77,Stratford International Station 7,51.545616,-0.005726,In service
3b736783d19b22b06ba0fdb255a762c3,NCRA78,Stratford International Station 8,51.545376,-0.006456,In service
c39e997b89723426aaaf18a3d883ad26,NCRA79,Harley Street Car Park (Q-Park) 9,51.517916,-0.145613,In service
3480093abb01c2a8636f3121ea3c0462,NCRA80,Harley Street Car Park (Q-Park) 10,51.517916,-0.145613,In service
5bf862e9ad21199deedba989f4cfabe9,NCRA81,Harley Street Car Park (Q-Park) 11,51.517916,-0.145613,In service
e117dcaba96eec4f0e1d0a46a4af2ff9,NCRA82,Harley Street Car Park (Q-Park) 12,51.517916,-0.145613,In service
c715b7f9c127a03df75863d57da84c6c,NCRA83,Sutherland Avenue 2,51.527759,-0.182649,Out of service
0dacca170181e97923eecffa82b682e4,NCRA84,Sutherland Avenue 3,51.527706,-0.182606,Out of service
600259e13679f23f49a6f920433f07eb,NCRA85,Francis Street 2,51.496429,-0.137437,In service
b52b6fdb906d03eb3fbba47a3e70240d,NCRA86,Francis Street 3,51.496429,-0.137437,In service
35416d3bb7bb5511512151a3b86bf772,NCRA88,Temple Place 3,51.511433,-0.113335,Out of service
69baa1f1851ad2bd24c61868329f76f7,NCRA89,Sainsbury's Beckton 2,51.521315,0.065875,In service
a613181e6d674d0e92be6e9090781d2e,NCRA90,Sainsbury's Beckton 3,51.521315,0.065875,In service
6fc29754b953b2340e9b0ad0af4a959b,NCRA91,Sainsbury's Beckton 4,51.521315,0.065875,In service
4836d3daac73e79fd9417372153d0b25,NCRA92,Sainsbury's Beckton 5,51.521315,0.065875,In service
0c7bb441bb04eb1819e4d85984bbb1a1,NCRA93,Sainsbury's Beckton 6,51.521315,0.065875,In service
1f62157646cced2ba0c2cefba81898d9,NCRA94,Sainsbury's Beckton 7,51.521315,0.065875,In service
17c0da55b4f8d3b7986f02c2fed6f2cc,NCRA95,Sainsbury's Beckton 8,51.521315,0.065875,In service
3f50f91e24ebec68162067a237486ddc,NCRA96,Sainsbury's Beckton 9,51.521315,0.065875,In service
c1d2042fc51ab284430e02327fe24182,NCRA97,Sainsbury's Beckton 10,51.521315,0.065875,In service
f7fce47a8468f42b347af74fe2a9dff0,NCRA98,Westfield London Car Park 2,51.508241,-0.221920,In service
943167a07ca1d20552e956dc6b1dde56,NCRA99,Westfield London Car Park 3,51.507907,-0.222628,In service
00c186c34994ba267053da1341fc5ffd,NCRA100,Westfield London Car Park 4,51.508067,-0.223014,In service
28815d7a5372c2125e339e91d644350f,NCRA101,Westfield London Car Park 5,51.507720,-0.222328,In service
6561fe105166ce4b86505f70d998c9dc,NCRA102,Westfield London Car Park 6,51.508201,-0.223100,In service
15adf8eabe6b4c8915ef1886d46d9d38,NCRA103,Westfield London Car Park 7,51.508361,-0.222628,In service
22a3e391437f8790fb3648be4fda65e0,NCRA104,Westfield London Car Park 8,51.508601,-0.222971,In service
f91e35ca467d4be2e5b72fb20f9e2ca4,NCRA105,Westfield London Car Park 9,51.508601,-0.223443,In service
f9c2bd6ae78f06e988060e799946360c,NCRA106,Westfield London Car Park 10,51.508441,-0.223443,In service
e6a414b0ca81ad9c945bd38ee7ec929e,NCRA107,ExCeL London Exhibition Centre 2,51.508160,0.027120,In service
c363082c40213145cbfa5f041ef0781f,NCRA108,ExCeL London Exhibition Centre 3,51.508160,0.027120,In service
b06e14c37d30165a92ea0d7ce2ab7525,NCRA109,ExCeL London Exhibition Centre 4,51.508160,0.027120,In service
38768493b757d3a4b5e2dd309a337705,NCRA110,ExCeL London Exhibition Centre 5,51.508160,0.027120,In service
4557eee1776bf0cd84d3fb51d33d2ca2,NCRA111,ExCeL London Exhibition Centre 6,51.508160,0.027120,In service
d1d07e2687728b478177313c1e95020d,NCRA112,ExCeL London Exhibition Centre 7,51.508160,0.027120,In service
6a8257beb9fc307eaa395c6e236a2008,NCRA113,ExCeL London Exhibition Centre 8,51.508160,0.027120,In service
e8a348a30367b70eb2fa4da3214583c0,NCRA114,ExCeL London Exhibition Centre 9,51.508160,0.027120,In service
1ef135181362fa0b1161630e65505ad2,NCRA115,Newbury Park Station Car Park 2,51.575648,0.090275,In service
98a09a93454205cac12cd99550295e91,NCRA116,Newbury Park Station Car Park 3,51.575648,0.090275,In service
0ff9386bc20d467f78719fb9a589b21d,NCRA117,Newbury Park Station Car Park 4,51.575781,0.090490,In service
ebf719b941bcf461a99293c89c08d822,NCRA121,Ikea Wembley 2,51.553945,-0.259835,In service
b4454d02eb787115ce649948b75fb5e4,NCRA122,Ikea Wembley 3,51.553945,-0.259835,In service
ebfb99ced54e42fd2cc0a018daf9da6f,NCRA123,Ikea Wembley 4,51.553945,-0.259835,In service
7bddc0dacc19a278be589a5ada3e2e46,NCRA125,Whittington Hospital Car Park 2,51.566918,-0.139259,In service
b9807c6ee4c57eafb2937b06b46635ab,NCRA126,Whittington Hospital Car Park 3,51.566691,-0.139560,In service
27219bfbe2bbda0407608eb8e278cbce,NCRA127,West Middlesex University Hospital Car Park 2,51.474078,-0.326190,In service
78fd8f31412337a63e1c64d007a9bd9e,NCRA128,West Middlesex University Hospital Car Park 3,51.474666,-0.325718,In service
f6c29b4bad4f3605d5238bb4479a7a0c,NCRA129,Euston Station Car Park 2,51.528664,-0.133296,In service
def6feabfe6b1da4025c2152c03aa83e,NCRA130,Euston Station Car Park 3,51.528664,-0.133296,In service
81e98219f751b64b9e7ec0e4e5c6d0e4,NCRA131,Exchange Shopping Centre Car Park 2,51.463906,-0.216287,Out of service
c7051dbf9f079a789189c4e6cfe490a5,NCRA132,Exchange Shopping Centre Car Park 3,51.463906,-0.216287,Out of service
f0a444af0c8029ca796c4f2115d66548,NCRA133,Smithfield Market Car Park 2,51.519072,-0.101405,Out of service
2fcac87be864706bdc67c7eafe94b87e,NCRA134,Smithfield Market Car Park 3,51.519025,-0.101480,Out of service
592e968aaa435fe152074b3726c2f609,NCRA135,Toyota Burgh Heath 2,51.314939,-0.232476,In service
6b36e481f67459ca5cc8e807c70a09ec,NCRA136,Toyota Burgh Heath 3,51.315261,-0.231961,In service
14fbf660ef750c09e04cc6be7e3da0e9,NCRA137,Abingdon Car Park 2,51.498076,-0.126358,In service
844f6937a6cbf4a3082e133e72f5cf39,NCRA138,Abingdon Car Park 3,51.498169,-0.126379,In service
2a56714006ae605b97a769d6fb7ddcb1,NCRA139,King George Hospital 2,51.580545,0.112107,In service
2d4e09afcf3274696320e3f549a04e64,NCRA140,King George Hospital 3,51.580545,0.112107,In service
2cd7839354c446f620159d3587f8ae40,NCRA141,King George Hospital 4,51.580545,0.112107,In service
8b8fe94a04798b1eb618e4a12d569091,NCRA142,South Street 2,51.527348,0.168552,In service
453f20d0233ae9781c3b2371c31d2bec,NCRA143,South Street 3,51.527488,0.168370,In service
46fe20112e76a7e41223a7aac0e2e65c,NCRA144,South Street 4,51.527855,0.168627,In service
64070488d259ab27e18091dc01340e3a,NCRA145,Snaresbrook Station Car Park 2,51.580490,0.021021,In service
4f322177e9ab1ee982a10607e24ce58f,NCRA146,Snaresbrook Station Car Park 3,51.581030,0.021268,In service
f1197f377c8fa43ffd0eb3d945d35e07,NCRA147,Snaresbrook Station Car Park 4,51.581030,0.021268,In service
4a2787af18ab8935d4635748ac810365,NCRA148,Loughton Station Car Park 2,51.641304,0.054084,In service
5c9886924588e138cc18290742c2095e,NCRA149,Loughton Station Car Park 3,51.641463,0.053719,In service
c308455d71e43b75517885c755a7dcb5,NCRA150,Loughton Station Car Park 4,51.641230,0.053741,In service
5a88c0ad5912acc71a03765cab4e1e77,NCRA151,Trafalgar Car Park 2,51.507309,-0.129457,In service
99298197cbb50710fee18fb3ec6993b9,NCRA152,Trafalgar Car Park 3,51.507309,-0.129457,In service
bf308d5f9825dd785eb773a14b9f17c5,NCRA153,Trafalgar Car Park 4,51.507309,-0.129457,In service
0696fd21373de4199e8b8e448ac37d8f,NCRA154,London Olympics Media Centre 2,51.548174,-0.024709,In service
9b3bc79cc92ae23dbd729983ae5856b3,NCRA155,London Olympics Media Centre 3,51.548280,-0.024623,In service
938b654b7d32802a4434c5e9eb8f39da,NCRA156,London Olympics Media Centre 4,51.548200,-0.025353,In service
e58f23193d264a95718c5382632908f6,NCRA157,London Olympics Media Centre 5,51.548227,-0.025053,In service
ea370fd565d330b204134f3cd29adbdf,NCRA158,London Olympics Media Centre 6,51.548707,-0.023851,In service
1af8fe938eaa23ee6c9cfbac31bc2ae3,NCRA159,London Wall Car Park 2,51.517670,-0.094916,Out of service
923d6cf18b65b2435bc0e4a1b7cecbf3,NCRA160,London Wall Car Park 3,51.517670,-0.094916,Out of service
02d98e65b4faf9888563bd5a7a518448,NCRA161,London Wall Car Park 4,51.517670,-0.094916,Out of service
26e4ff63e1ba6fe0ec4122363d0e46cc,NCRA162,London Wall Car Park 5,51.517670,-0.094916,Out of service
a86c98d2f02850192f0b3d8f866cf157,NCRA163,Minories Car Park 2,51.510393,-0.074410,Out of service
d0ed65f85b2dc982fc3c3f3560bd4fcd,NCRA164,Minories Car Park 3,51.510393,-0.074410,Out of service
027678c1c09b763c4ae7871e4050c718,NCRA165,Minories Car Park 4,51.510393,-0.074410,Out of service
3b501e83126979d0a8d1981803f957e5,NCRA166,Minories Car Park 5,51.510393,-0.074410,In service
9f343cfac95bc225e0b18f930e06a640,NCRA167,Baynard House Car Park 2,51.511811,-0.100161,Out of service
095664857f06831ff7b51bf47c64ab5d,NCRA168,Baynard House Car Park 3,51.511811,-0.100161,Out of service
88bb32f17cf7838be4145abe4a952a08,NCRA169,Baynard House Car Park 4,51.511811,-0.100161,Out of service
9976473e5d3a3143ced6cf1511098e5b,NCRA170,Baynard House Car Park 5,51.511811,-0.100161,Out of service
14e551c783c0db4a9dce5460efccf524,NCRA171,Redbridge Station Car Park 2,51.576367,0.045394,In service
a1088f2d527128459afaa3a110091d95,NCRA172,Redbridge Station Car Park 3,51.576367,0.045394,In service
5f2e2f400030f3f4a4d5d36e2aa6c003,NCRA173,Redbridge Station Car Park 4,51.576367,0.045394,In service
d2adc3dfcae845b31b0b9fd80cc4469b,NCRA174,Redbridge Station Car Park 5,51.576367,0.045394,In service
0be7a091252e36e2e42838b9ac58ca38,NCRA175,Arnos Grove Station Car Park 2,51.616261,-0.132539,In service
bca5a42fb9bd6ab1787486b774b1528c,NCRA176,Arnos Grove Station Car Park 3,51.616361,-0.132603,In service
699b456626c45550ca121c20d03da483,NCRA177,Arnos Grove Station Car Park 4,51.616414,-0.132518,In service
4f03dae4f1f28deb53f7004c6d7cd132,NCRA178,Arnos Grove Station Car Park 5,51.616441,-0.132475,In service
1d16bd4b554d1acb1b8c8ac15f94f88b,NCRA179,Blackhorse Road Station Car Park 2,51.587535,-0.041688,In service
4ef6af17b4db59358bc4b9724e9db08e,NCRA180,Blackhorse Road Station Car Park 3,51.587575,-0.042504,In service
4780babd00505597e4b63e5fee2485da,NCRA181,Blackhorse Road Station Car Park 4,51.587468,-0.041774,In service
772246bf0806ff4741b1b637b93d5bdf,NCRA182,Blackhorse Road Station Car Park 5,51.587948,-0.042847,In service
9060b6f07473839fc0bbda82aea5cd31,NCRA187,Oakwood Station Car Park 2,51.647824,-0.130996,In service
9ee7af963c19e8e67bb1baefaab4837b,NCRA188,Oakwood Station Car Park 3,51.648330,-0.129322,In service
2968213e79a3a2d48490ffd189255384,NCRA189,Oakwood Station Car Park 4,51.647798,-0.130953,In service
f293378863e049925b50ea1e262ea795,NCRA190,Oakwood Station Car Park 5,51.647984,-0.130609,In service
ecac401b672c0e65661d7c759900149a,NCRA191,Oakwood Station Car Park 6,51.648357,-0.130266,In service
fe1788e5a6ce2ff8c81d4be861645aab,NCRA192,Newham University Hospital 2,51.523008,0.035391,In service
c0b9cc4a860c95fb6ca92d7fd9630cbe,NCRA193,Newham University Hospital 3,51.523008,0.035391,In service
7feede00c5f1a2b9f0a7ce8256f3f152,NCRA194,Newham University Hospital 4,51.523302,0.034661,In service
5324f5bf2d4b3913f19bddd27e0acffc,NCRA195,Newham University Hospital 5,51.522981,0.035734,In service
b47c3a19441c27b39c68031901b2d7bd,NCRA196,Newham University Hospital 6,51.523382,0.034661,In service
27a9a0db6ab0da9b4f98c0681956baff,NCRA197,Rayners Lane Station Car Park 2,51.575123,-0.370854,In service
8f21ca14a14759dc9834ccdda1b4ca1f,NCRA198,Rayners Lane Station Car Park 3,51.575026,-0.372163,In service
92795ca7ab26f3693d88d494d5d18d5a,NCRA199,Rayners Lane Station Car Park 4,51.575143,-0.372377,In service
97bbe678c1f720f5dafd1a7e37fa1f8a,NCRA200,Rayners Lane Station Car Park 5,51.575230,-0.373643,In service
51e5bf4a5556695436563b02f147e2aa,NCRA201,Rayners Lane Station Car Park 6,51.575016,-0.372270,In service
cc49a288555c28dc9d5609939bd9155d,NCRA202,Stanmore Station Car Park 2,51.619580,-0.301930,In service
f16b13b3359057a94cf81141192707bd,NCRA203,Stanmore Station Car Park 3,51.619480,-0.301865,In service
5abee774a7f16efc9f8a836d2609bbc9,NCRA204,Stanmore Station Car Park 4,51.619034,-0.300824,In service
92f1997e392eafd508b97492794fe4f8,NCRA205,Stanmore Station Car Park 5,51.619087,-0.301168,In service
0fbc90ea428a06eae66e4e7807decf8b,NCRA206,Stanmore Station Car Park 6,51.618074,-0.300524,In service
725fecfc8d08e46ad129c20216738f63,NCRA207,Chinatown Car Park 2,51.512314,-0.129598,In service
4eb15a6eca524ddc6325e444d6519500,NCRA208,Chinatown Car Park 3,51.512264,-0.129485,In service
4d78ebf86f5ae4db24143c8a2af603b2,NCRA209,Chinatown Car Park 4,51.512264,-0.129485,In service
ae56d77a2e9a6927aa1873660ff1df94,NCRA210,Chinatown Car Park 5,51.512264,-0.129485,In service
47820c9bf8a7505b11289bab529c7e22,NCRA211,Chinatown Car Park 6,51.512264,-0.129485,In service
f97bf745a786e94e38d87e8bab19aeef,NCRA212,Tower Hill Car Park 2,51.508814,-0.080169,In service
798f03483442d7307a34e6f1860dba47,NCRA213,Tower Hill Car Park 3,51.508814,-0.080169,In service
fa14eb3c53094d0323749eeeca109144,NCRA214,Tower Hill Car Park 4,51.508814,-0.080169,In service
bfe175c77f43d0aee301e9487256b576,NCRA215,Tower Hill Car Park 5,51.508814,-0.080169,In service
716daebccde158c75f9166f957418906,NCRA216,Tower Hill Car Park 6,51.508814,-0.080169,In service
782c3142843ce68e8f5edb1033a3d279,NCRA217,Chalfont & Latimer Station Car Park 2,51.668453,-0.562125,In service
32df38d18d0df97f394f4b2b5fdca17d,NCRA218,Chalfont & Latimer Station Car Park 3,51.667914,-0.560923,In service
376fa4e9db29db031e42237b552e0dd1,NCRA219,Chalfont & Latimer Station Car Park 4,51.667914,-0.560923,In service
0ddb9e5ec2e55a3ec2d96eeeb3696751,NCRA220,Chalfont & Latimer Station Car Park 5,51.667914,-0.560923,In service
a384a1efbc01be21ea6b0db84bdf5d1f,NCRA221,Chalfont & Latimer Station Car Park 6,51.667914,-0.560923,In service
3ff0854b97d5114a408ffe770c02fefc,SL20036,Wilton Way E,51.545609,-0.062467,In service
05f6fe88caadf69b2ae9a3a55488c1b5,SL20037,Oldhill Street E,51.569819,-0.063732,In service
b7ccf7d1f8918ac61f426ce8a55fae37,SL20038,Yoakley Road E,51.562227,-0.079464,In service
1b09cc927998fd01712898823bec742b,SL20039,Lavender Grove E,51.541123,-0.069681,In service
11bb19222e6443597b56204efe838a43,SL20109,Queen's Drive E ,51.565981,-0.101800,In service
faef3f7c9ca7a88420edde6b8b7cb88c,SL20233,Horselydown Lane (Expansion),51.502992,-0.076624,In service
306143c5c100e0c89b8ec0633eb24e05,SL20001,Ondine Road,51.463033,-0.072503,In service
c45140ecbba80b5ddbbbafa7ec713b46,SL20002,Gomm Road,51.495797,-0.052046,In service
3e0c75ef9041e74cc2a533fa0fbbf33a,SL20003,Scovell Road,51.500088,-0.099251,In service
02430c2105411159bae5c27e01e22624,SL20004,Holland Street,51.507347,-0.101039,In service
0fe711102be80eb9b7b5b82399ac0e2f,SL20005,The Cut,51.503518,-0.106169,In service
c7174932af2267d7d971139731f3e154,SL20006,Doddington Grove,51.486837,-0.102870,In service
c808ba88ce2813db7491dc00207a9753,SL20007,East Dulwich Grove,51.459683,-0.075509,In service
c886a0743c334e4a270054fdc9459a06,SL20008,Trafalgar Street (East of Portland),51.487850,-0.090484,In service
4f087c37058a145e5d78eb26a6ff7985,SL20009,Danecroft Road,51.455684,-0.092719,In service
ad338cd1d1c7547cc5ce21bf990267d6,SL20011,Underhill Road (West of Barry Road),51.454533,-0.069680,In service
66f6c7d77d107fb1a83f84592c5d8c92,SL20014,Copperfield Street,51.502995,-0.097228,In service
eaf7b2bea9a5e0f65e047ab866afddea,SL20015,Cheam Street,51.465270,-0.058227,In service
5a6b45c7e962783b5a8d78f4598f5119,SL20016,Railway Avenue,51.501285,-0.052187,In service
aa568ecc41df858800f7b6777e9a9271,SL20017,Danby Street,51.466592,-0.073447,In service
0d0bce3de4ae5da76c07d8db94a9dc53,SL20022,Clissold Road,51.557383,-0.083447,In service
9bc4cc39b2d1238923c82ce6c6894b5b,SL20023,Yoakley Road ,51.562227,-0.079464,In service
2036aea21d81a7c8ece0175625da1ee6,SL20024,Bocking Street,51.537294,-0.057225,In service
e534a36507cba361162587409598251a,SL20025,Worship Street ,51.522009,-0.080882,In service
daef4108aa4d503e5236ca711dfc182c,SL20028,Queen's Drive ,51.565981,-0.101800,In service
8fa7814fed3b1ec42b1c7f857f2dd23f,SL20030,Talbot Road (K&C),51.516103,-0.204246,In service
5ac1f012e7dc8517b40d622382af7259,SL20031,Seville Street,51.501828,-0.159334,In service
3e96fce5defac50838cbda1179e5cbd5,SL20035,Blackheath Grove,51.466401,0.009719,In service
7b7eb29243deef56cc6cc710c5a88923,SL20052,Garnham Street ,51.562491,-0.073018,In service
22a37d0997a43dcffa1b041b372b8d0f,SL20054,Market Street,51.490248,0.063663,In service
83b9191b2447b60e0a7b661e7e87b875,SL20060,Acton Street,51.528331,-0.118663,In service
163154c43ed3ef9fe5ce6ae6725127ab,SL20061,Burghley Road,51.557071,-0.138957,In service
dfe00436bd19dedce814a6b53cfc8f82,SL20062,Charlotte Street,51.519292,-0.135467,In service
0717f2c73ea6313e000a20d1b82ec2ce,SL20063,Church Row,51.555531,-0.178892,In service
291601c53aba7bb60954f1841e083edb,SL20064,Fleet Road,51.553553,-0.162209,In service
380c7db0f1e0c6903517e1227f997e69,SL20065,Haverstock Hill Road,51.549358,-0.163056,In service
9fcb5252180dc29b22976c5c63b322e7,SL20066,Belsize Place,51.549692,-0.171192,In service
2448b9927491425c1d344816c384d5de,SL20067,Fairhazel Gardens,51.542185,-0.181112,In service
8342ffcd16eae5c3abcc8291bf1e6b0d,SL20068,John Street,51.521344,-0.114727,In service
f0ca0b553c8010b83276696e9df23abe,SL20069,Mill Lane,51.551118,-0.202939,In service
e9cd024c5fbe0d38de3cbcfddead4b9e,SL20070,Netherwood Street,51.545146,-0.200521,In service
690eb976c80d3c015c71bc9ac4476a6c,SL20071,South End Road,51.556106,-0.166722,In service
7879f860900cb332158c7d086275b70d,SL20072,Bernard Street,51.523398,-0.123349,In service
74e79ca3621639d1a966b9286fd9eb76,SL20073,Crestfield Street,51.529598,-0.122503,In service
c252b9390befbfe200d59090a071c413,SL20074,Regents Park Road,51.540027,-0.157505,In service
698eece3176677446ded4e42472e81f7,SL20075,Sardinia Street,51.515045,-0.118403,In service
6f60ee9161444f36d187b6bc8081fdaa,SL20076,Warren Street,51.523543,-0.142097,In service
3f67232bdfdaa9f26c6719fcb373b70f,SL20077,West End Lane,51.540848,-0.191822,In service
c220db9e027a8200cecd44c0384be355,SL20078,Nevern Place site 2,51.492932,-0.195606,In service
219ceabe1d448be178ced66c46a4844e,SL20079,Shalcomb Street ,51.482449,-0.179486,In service
aacd4dc92a13671ca5f3dd9577692d7a,SL20080,Chelsea Embankment site 2,51.484093,-0.162036,In service
146e7747e9a81cf9f5a4b4f8f2b54fb7,SL20081,Lots Road site 2,51.477954,-0.182473,In service
712fef8529234126a89d84ddd12d7fad,SL20082,Lennox Gardens ,51.496512,-0.163237,In service
5caa08bb057d5c8b6ff90ced809b7e49,SL20083,Queens Gate site 4,51.497697,-0.179282,In service
c270380928379b118113b0e0ce1a3f2f,SL20084,Pembroke Villas ,51.495466,-0.198430,In service
5106cad7cd382c408b75bd4f634d0f7c,SL20085,Norland Square ,51.507231,-0.210935,In service
320962619d5a31307176f820ce93067f,SL20086,Palace Gardens Terrace site 3,51.508097,-0.193494,In service
a2c5001b4eef257f0fbc29a36e8b6938,SL20087,De Vere Gardens site 2,51.501727,-0.185115,In service
8c027c101659347f0acda1c3eea18b6e,SL20088,Addison Crescent,51.500926,-0.208502,In service
38e72d7818d3630a7670c86ce1e2f38a,SL20089,St Charles Square ,51.522236,-0.213071,In service
1ef78283cf1c8eca871aa5f670df8fb6,SL20090,Ladbroke Square,51.509771,-0.204149,In service
91f42aa2867de5e00083b5b46b666a7e,SL20108,Kingsway Road Car Park (site 2),51.356910,-0.217904,In service
7e6b446af2958943b8b8769bd5247c44,SL20112,Govan Street,51.535317,-0.063870,In service
785ab11b3be62fbe6de25e5d1b0c036a,SL20149,Dudley Road (Brent),51.534636,-0.205982,In service
a6ba5fbeb451e70ed1fbb18eb8229348,SL20198,Mapleton Road - Wandle Recreation Centre,51.452657,-0.193438,In service
67a0df3c2f1bb6fbc4f501515518dd21,SL20223,Bisham Gardens (Site 3),51.570296,-0.146685,In service
85200a8f134802dd452522a59edc9676,SL20224,Doughty Street,51.524642,-0.117359,In service
74b4cfb4b5934e3afb294a434a87cd22,SL20225,Goldhurst Terrace,51.545485,-0.179942,In service
5eb9afec4a3817f8171f1a4964458c65,SL20226,Newmans Row,51.517500,-0.115606,In service
a0fc94180aa67c75c425f28149640af0,SL20227,Red Lion Square (Site 2),51.519493,-0.118753,In service
534377b318b8a31992b8728b55bcd5f6,SL20228,Shepherds Walk,51.554718,-0.172894,In service
5fb0ba117ba4a6532d2533f1f5f914b9,SL20229,St Albans Road (Site 2),51.560916,-0.150039,In service
b4c4c2f7aa6a97b35c656dbbd6862c79,SL20230,Store Street (Site 2),51.520042,-0.131155,In service
c688ad54d6762a95e5ad45c162110eef,SL20231,Clancarty Road Site charge point re-position,51.470875,-0.195151,In service
51beaebc231c8720d18d10b0008693dc,SL20259,Malet Street (22kW),51.522327,-0.131177,In service
de2d9145a23e3dc090326ac491b4485a,SL20261,Cowcross Street,51.520115,-0.103218,In service
7898802cd6fcfd431385162218e7533b,SL20279,Central Street Site 2,51.525626,-0.096429,In service
b30d66507cdec0042687a849a1bd3e77,SL20280,Bath Street,51.527343,-0.091442,In service
92df85ffff76a4150a03d3f1e4d4cb54,SL20285,Tabernacle Street,51.523924,-0.085804,In service
43bc8f8a67b517eeaba476516a547f26,SL20298,Baldwin Street,51.526937,-0.089152,In service
519edbe68ddca5be0c26ed1d4807bdd2,SL20301,Berry Street ,51.523367,-0.100228,In service
0f77e406b2bf5f4bf4ae0e5e90c325da,SL20321,Douglas Avenue ,51.546389,-0.297087,In service
cf8ab5c3485dca9852b4344b05c9f56e,SL20324,Watford Road,51.556797,-0.317284,In service
02f95f91ee1d5973115fb76229aadc81,SL20326,Limesdale Gardens,51.599483,-0.266642,In service
8b4c78eac40944896eaef63ea53a908e,SL20329,Kempe Road ,51.532981,-0.217726,In service
705c4c35ebdb20280bf276ad85ecbf6d,SL20330,Buller Road ,51.529892,-0.216246,In service
92e7aba7ac587de1f5166b557e1be91d,SL20331,Leghorn Road,51.536701,-0.243218,In service
b1129ac1fa70df53986d85d46ed2c3c9,SL20332,Walm Lane ,51.552278,-0.210625,In service
a3f11bbce242b4a017959c54fe46161b,SL20333,St Julian's Road,51.540235,-0.198134,In service
0d8c2266917286f10a96dbd8ff7436ce,SL20335,Chapter Road ,51.551287,-0.239613,In service
ecf6eaedcc3794031298621cd41428da,SL20337,St Pauls Avenue ,51.548666,-0.222075,In service
b2fd0961ea86cd55fa2f860d03576a70,SL20382,Cable Street,51.511056,-0.059034,In service
a7894649f023b61a850c178d9870aee1,SL20406,Camley Street,51.538365,-0.130881,In service
82ef66b1a52898c702c82939dcd19257,SL20407,Eton Avenue,51.544187,-0.172855,In service
d2bd7e3bd6dc601ee4d792f650ca3434,SL20408,Kelly Street,51.545989,-0.143823,In service
984af16f05b60ec5f4bd6a282cbb3cca,SL20409,Lambolle Place,51.546243,-0.165100,In service
c0f7ac75c989a955c88473003b4bb4fc,SL20410,Daleham Gardens,51.547381,-0.174111,In service
53d6d0c034259a6ee252c5db4675d08c,SL20411,England's Lane,51.546786,-0.160766,In service
f0d6ff6478f746199e1dd63c26873e31,SL20412,Fitzjohns Avenue,51.546489,-0.175719,In service
e6a89a1175857df1293fe2459a61b33c,SL20413,Ornan Road,51.551771,-0.167257,In service
0474c6ce8138165a852eccbe02d1404a,SL20414,Lindfield Gardens,51.552158,-0.182906,In service
2aa37945a5b8d6a8bba736a8e0a4f90f,SL20415,Maresfield Gardens,51.551654,-0.177691,In service
18f18df4a6146deb1b97c2c944b9660c,SL20416,Netherhall Gardens,51.549159,-0.179146,In service
12c2175c328e25f2d81162753e4bf8bf,SL20419,Dartmouth Park Avenue,51.561773,-0.141723,In service
6a0279712375d12f36acad021b7f4c13,SL20420,Lancaster Grove,51.545896,-0.169397,In service
5193761ffd1ff0e119b69818c473ea7c,SL20421,Ospringe Road,51.553913,-0.137124,In service
29ca93830472d3aa91c2d74dcf31258c,SL20422,Templewood Avenue,51.560770,-0.186242,In service
b55b698cd466855ddee574af64353300,SL20423,Regents Park Road E,51.540136,-0.157602,In service
9bf163e13cef05d1a1f7798372191dbf,SL20426,Brittania Street,51.529595,-0.119504,In service
5a9a53f3a85cb187fe62b2f03808661b,SL20428,Mill Lane (Site 2),51.551345,-0.200161,In service
3b88ee42707b436867d050527872d6ec,SL20429,Greenland Street (Site 2),51.538342,-0.141322,In service
99791286d89586f31dd373ee15ae2265,SL20436,Herbrand Street,51.523192,-0.125116,In service
1962233978ffd7b03d3ba3fe154fd0b4,SL20474,Hampstead Grove,51.560314,-0.179408,In service
b75f8d56e51f746c580612996fd03d5b,SL20488,Swains Lane,51.564231,-0.146456,In service
e95f0d21e91b7b378fe056653dcd11c7,SL20489,Horseferry Place (Expansion),51.482576,-0.013377,In service
bf1afd938852be319edfaaecd4cc4407,SL20586,West End Lane E,51.540821,-0.191765,In service
38b4b9a09432611a079c400a04a1d3cf,SL20589,Charlotte Street E,51.519266,-0.135511,In service
35854034f8375f265169d665820ea236,SL20590,Haverstock Hill Road E,51.549512,-0.163136,In service
d2f771dacb27211ea4f146852bc15328,SL20591,John Street E,51.521389,-0.114740,In service
688f354100639413a99b136265aa5284,SL20592,South End Road E,51.555465,-0.166561,In service
0bdfb1231eca53e69ca24c2de2eb6912,SL20601,Ladbroke Square (Expansion),51.509715,-0.204021,In service
10fe0ed6c977c050e67cb7865b75beda,SL20606,Addison Crescent (Expansion),51.500908,-0.208503,In service
6bb4e060d44ced0f496732b3a8b4f75c,SL20608,Lennox Gardens (Expansion),51.496521,-0.163207,In service
43285a8b542fcdc35377439e05dcb04f,SL20609,Queens Gate site 4 (Expansion),51.497644,-0.179327,In service
097a3782ce0b4223df021dc23d43dec2,SL20576,Brecknock Road,51.541052,-0.130828,In service
d332fa8b42d6eeb7236bfecde8ee379b,SL20578,South Villas,51.546495,-0.128687,In service
edcc363aeda7f5a49777a436f6029b00,SL20585,Broadhurst Gardens Site 3,51.546806,-0.183379,In service
9878edc5b56468b6f7af26f42ae2cd5b,SL20602,Burrard Road,51.554012,-0.195844,In service
f9429cbcd6a95dba7e2840a8afc248fa,SL20010,Horselydown Lane (South Of Gainsford Street),51.502992,-0.076624,In service
ecebb6d849809cf79fa2ba47c3730728,SL20012,Wallington Library (Shotfield),51.358314,-0.151261,In service
388757be1a97a594eb5c6fc6b18b1587,SL20018,Horseferry Place,51.482496,-0.013424,In service
a57d3a8a5796427039037a922e05ad2c,SL20019,Messeter Place,51.450087,0.059520,In service
c0eae791224b6a30b333be1946b07c3b,SL20020,Roan Street,51.479950,-0.013376,In service
0f759c47d58b35fe0b2a45100f91e7c3,SL20021,Blissett Street,51.475144,-0.011526,In service
07c316874ff76371755cd4ccac51a431,SL20026,Lavender Grove,51.541123,-0.069681,In service
adf7a9ebb3f37899aebeaa20db3f34f1,SL20027,Oldhill Street ,51.569819,-0.063732,In service
579d0f1392b7c55c55786b940aaa41b6,SL20029,Wilton Way  ,51.545609,-0.062467,In service
9ed6ce2a74bb40d489b896a3f42123bd,SL20032,Kitto Road,51.468059,-0.044229,In service
28191d73168c54c9029d9379d42331ec,SL20033,Riddons Road ,51.431445,0.031131,In service
f2cc54e8e45b195c0028c4f353f8e34c,SL20040,Doggett Road ,51.445703,-0.024361,In service
a2fe4d276d8e1ff1ddc2adc473a653ce,SL20046,Farm Lane,51.481311,-0.197749,In service
61f5608c2eccc5b34686c8978f0c4e19,SL20047,Du Cane Road,51.515826,-0.238141,In service
d070c47f919a5ae81cf583cdcaba64a6,SL20048,Brook Green,51.497190,-0.222422,In service
56d53dcdce637d1d0962544e3deb57f9,SL20049,Standish Road,51.493401,-0.241282,In service
3c070b27720b91fd255f4d346a685416,SL20050,Gayford Street,51.503346,-0.243637,In service
2134513f7c3c74cd7f5dcd05e9cf2260,SL20051,Thaxton Road,51.486402,-0.202547,In service
4d71c3d862bc1a43b5d1e27c57708e65,SL20053,East Parkside / John Harrison Way,51.495839,0.013578,In service
da465bcad47fdaacbb80455ef525d08d,SL20056,Wolverton Gardens,51.493276,-0.221090,In service
f04904ed5d5cb02feed3d3b3b2aefef3,SL20058,Kangley Bridge Road (Site 2),51.425295,-0.034318,In service
061eb0a074d548d5da5581e965fcf302,SL20059,Lennard Road Car Park,51.415792,-0.035502,In service
4da947c0bc7c4b2df38f9236b3c53590,SL20091,Brook Green E,51.497190,-0.222422,In service
6fe0d5701051209460f866acec5a283a,SL20092,Wolverton Gardens E,51.493276,-0.221090,In service
9a1be607e3471d7be5a471144eb1bce3,SL20093,Square Car Park,51.364683,-0.161649,In service
aa85b9dd3a706d68a9162db6788c3575,SL20094,Melbourne Road car park,51.361411,-0.149757,In service
1043557856fccea9880994ac828d76bf,SL20095,Wallington Library - Shotfield E,51.358314,-0.151261,In service
9b9e41d928a16c15a1305b46e9c9e1e2,SL20096,Caxton Road,51.504797,-0.221780,In service
659b9b9403bd24699a05531cd2901d58,SL20099,Lalor Street new site for Waldermar Avenue,51.473968,-0.211560,In service
aa58b7abc80251c222053fb5d3c87a06,SL20102,Civic Centre Car Park (Stockwell Close),51.404468,0.020115,In service
326fee9a6a134cb3a14d2d40fd17a002,SL20104,Hill Car Park(Site 2),51.406462,0.010857,In service
d57322bb3ff456cd590697b1b2979d95,SL20105,Penge East Station (site 2),51.419299,-0.054912,In service
1e01ba3e07ac48cbdab2d3284d1dd0fa,SL20106,The Spa Car Park Site 2,51.408651,-0.038727,In service
7743900015b6b880f6c937b10780acc2,SL20107,St Georges Road car park,51.409590,-0.023402,In service
ed00f0fd1389a46a156dbc31a4e07327,SL20110,Haggerston Road,51.539188,-0.073959,In service
c82d555b0bbec8ed8d2b321f111d76b4,SL20113,Stamford Road (Hack),51.544388,-0.076826,In service
1d9c648488a6568ac062ed6bb21730ea,SL20116,Downs Park Road ,51.551462,-0.067325,In service
d1280015dce1d0d11a4e24157bedb5f5,SL20118,Gore Road site 2,51.536483,-0.044124,In service
03555a28a61d7e741514d83b5e09597c,SL20119,Millsfield Road,51.557393,-0.043184,In service
b7ef66c24d8dca773e2a56a39087bba6,SL20122,Linden Gardens,51.492217,-0.258326,In service
96fef212944b86ce7edd8eeac876bc23,SL20126,Wimbledon High Street,51.425507,-0.220371,In service
4529ff824728f6c873898efa847db23f,SL20127,Strathearn Road,51.427467,-0.199768,In service
512b457d9340db7aadcdeda99e7ca2b1,SL20130,West Barnes Lane,51.394290,-0.239192,In service
14892111c7bf596c68c0324ee3bd94c6,SL20132,Gorringe Park Avenue ( Site 2),51.417556,-0.160277,In service
80cab82102cea4f1200b8980800dc80c,SL20133,Kingston Road,51.409031,-0.214929,In service
00eaecedf2482f81ff5877de3d923dea,SL20148,Pincott Road,51.415571,-0.189277,In service
9ae0979b2c61c206173b080f42d7e434,SL20150,Isleworth Leisure Centre & Lib,51.465756,-0.330309,In service
5650a8f1c991eb9acc8850fd52129c59,SL20151,Brentford High Street Car Park ,51.485788,-0.300685,In service
9ec4852786ef1b3dcac42d48d0f743a8,SL20154,South Hill Road,51.394042,0.005166,In service
4b99dee718470534fdb31068af8aaf19,SL20155,The Meadway,51.356644,0.105928,In service
c1a181c99ac4568d774b6585bc0a2153,SL20157,Hayes Station Car Park,51.376592,0.010597,In service
b6c6b4ece51209d4144d55b6bd569293,SL20160,Dunraven Street,51.512731,-0.157295,In service
f1f3c7a678f84ad8e59e957bb284ceab,SL20161,Temple Place site 2,51.511407,-0.112471,In service
9b4fcf5a802a3d6ed8cf976dabb8270f,SL20164,Hinde Street,51.516884,-0.151463,In service
bda490942f07997cf7098b29e0745603,SL20165,Abercorn Place,51.530769,-0.184306,In service
3839ea3a880afd26aa38fc8341bf02a5,SL20167,Grove End Road,51.527837,-0.174447,In service
d4ff3c518d33328bfadc34f25b054267,SL20168,Queens Grove,51.538302,-0.172009,In service
d4ef2de311ead79f775a4568b2ec8021,SL20169,Syon Lane Site 2,51.480195,-0.320709,In service
b5d8e2235acf5e4c759a314fb5dd7ffa,SL20170,Boston Manor Road Site 2,51.487510,-0.310949,In service
1eb0ed8465bed1ab49e1e465acc30589,SL20171,Gloucester Road ,51.463713,-0.386730,In service
128d5eb8d8a614e90f1faf4dc5b76e96,SL20172,Spencer Road Site 2,51.481601,-0.269531,In service
478907f8747ff51b00052e5e2de19b98,SL20173,Osterley Ave,51.482509,-0.348132,In service
4e05dc8e52de02609ea4859612a8262b,SL20175,Ufton Road,51.539661,-0.083630,In service
4cabd4062d563c8027e488a337c34d28,SL20177,Hammersmith Bridge ,51.489782,-0.229048,In service
35bb2c23578a32920ff65e68292595cb,SL20180,Australia Road,51.513471,-0.234643,In service
a29a4dec60f3fd91f428bc98c070f621,SL20183,Clancarty Road Site B,51.470022,-0.196942,In service
89c7730ea9e62ad83f600d4d744fb5a7,SL20190,Bramfield Road,51.455627,-0.164648,In service
04995e83455d87e2bf9a075818724935,SL20193,Coverton Road,51.428342,-0.173207,In service
ff247360b70708132f375c3c47ca2f78,SL20195,Maswell Park Road,51.461955,-0.361730,In service
7cac42a554f584ec539cc3c48064dc96,SL20196,Avonmore Road ,51.495251,-0.208422,In service
6cdd6db6a4be3ad8ff3512a4fa63eacc,SL20200,King John Court ,51.524109,-0.078992,In service
176d15a9c38855b00907aa1e135d8b79,SL20215,Waldron Road  Site B,51.436768,-0.186482,In service
7295f427f6a6f17036b188965713c7e2,SL20217,Commondale,51.468572,-0.227479,In service
d64eb285a1adcb2b74c773c22f0a3578,SL20222,Brentford Fountain Leisure Centre,51.491095,-0.284700,In service
6b46e629140b99a84c4b2d5108b88142,SL20240,Richmond Way,51.501988,-0.217437,In service
024dd2f126c5b8234edac4f764731eb0,SL20257,Seagrave Road - Site 2,51.484226,-0.194970,In service
dc90b8aad14561c8d9f725e6c0db36df,SL20258,Manbre Road,51.486744,-0.224383,In service
be190504329c0ef9e2005ab480d8a351,SL20262,Britton Street,51.522255,-0.104873,In service
ea3b2fa3b1f46d7d5bdbdd553d6ce6b1,SL20263,St John Street,51.520560,-0.101815,In service
0820215b42109e5639dc292c7d21d6fd,SL20266,St John Street - site 2,51.528326,-0.104895,In service
e88b7ed1cb586cf4a763bb4eef4e07ac,SL20267,Hanley Road,51.570097,-0.116160,In service
782b51157d348c50625921316678189a,SL20268,Hawes Street,51.540262,-0.099554,In service
1916d024d39e743f93e82c4a4cb5e77a,SL20269,Evershot Road,51.569642,-0.116395,In service
4471baae231b0e23b4b8cadd00c11cb6,SL20270,Almorah Road Site 2,51.540980,-0.086703,In service
4922dbf710cca1202c83b7c9bd812197,SL20271,Almorah Road Site 1,51.539812,-0.088440,In service
0fe23d8acfec73791f14eff1272cb4f2,SL20272,Mildmay Road,51.549440,-0.078877,In service
5608e05fc082b3c54769d871f340d9da,SL20273,Mildmay Park,51.550442,-0.084662,In service
cb28b3716c38b89e4b9790de5592bfe5,SL20274,Bevan Street,51.535445,-0.094160,In service
88bfc14a733a1d1dd4a815b06a1d37f9,SL20275,St Paul's Place,51.547933,-0.087969,In service
6ac1c1ec6cbc3beefefa7970d3b95684,SL20276,Mildmay Grove North,51.549123,-0.087025,In service
0b18f984ee1145ae3f8f55712f84887f,SL20277,Percival Street,51.526167,-0.102087,In service
fba5d6743be39f51d4d8f0df95461653,SL20281,Peerless Street,51.526922,-0.090407,In service
f3425fc9e36ea9f96ff355ee92f05c1c,SL20282,Hall Street/ Angel Mews,51.529344,-0.101118,In service
67e379556f744137a89e2370eb9dc2d7,SL20283,Aubert Park,51.555566,-0.103344,In service
751dcf66194776732ac3798449c368c6,SL20284,St Thomas Road,51.559123,-0.103658,In service
92f49ada35450339f713ccaffc62bfd6,SL20286,Great Sutton Street,51.523663,-0.099639,In service
fe7266bbe7c8f5887825cadad65676ce,SL20287,Ironmonger Row,51.527206,-0.094619,In service
2c9ef150b5e90fb54ba9a184e3547de1,SL20288,Annette Road,51.555349,-0.112744,In service
5238757b72f1a2c3c4828fcb05833135,SL20289,Ambler Road,51.563202,-0.102348,In service
d0f9e5026cbaebad4161ac24ebe9f25f,SL20291,Park Row Car Park,51.483122,-0.003156,In service
0546dc98b57719a11e398f076c340d7c,SL20293,Banning Street (Car club),51.487417,0.002836,In service
706e0c87b8e70fe2c230eda28381f30a,SL20296,Cardwell Road,51.555689,-0.124429,In service
ade4ebc2e75e9713c947671a375721ca,SL20297,St George's Avenue,51.556890,-0.127568,In service
c6cabc8a38a5260d249e178e14a538e4,SL20299,Corbyn Street Site 2,51.568256,-0.117982,In service
9f8109f0c1ba2abe959fac9203fe19be,SL20300,Cardozo Road Site 2,51.551294,-0.120081,In service
be091795c6243ad74450cbc227947866,SL20303,Grand Drive,51.391716,-0.222962,In service
c30b67b41e41ee723a2862c38ace3acb,SL20304,Melrose Avenue,51.438893,-0.203635,In service
67b3bc4441cb4e9e2e38cb5586931c0c,SL20307,Kingston Road Site C,51.415483,-0.194084,In service
b0d943c882d9293586089fd78db5324a,SL20309,Rowan Crescent,51.410107,-0.141853,In service
ce87f396792e898de659d416fe24f75a,SL20311,Gladstone Road,51.415030,-0.200889,In service
6c172d1752e00a1e78626a180c579669,SL20312,Elmwood Road (Langdale Avenue's replacement),51.403851,-0.164867,In service
5ba89750fea7cde97dc87aa129befe40,SL20315,Bond Road,51.408187,-0.168949,In service
2bb69afbcc2012b8f34d148416e8222a,SL20318,Ashbourne Road,51.417397,-0.151913,In service
5fe43705139f49c3b2566dd48a4da069,SL20319,Acacia Road,51.406700,-0.152704,In service
df24fe26d15929c5e1a781e9c1ead123,SL20320,Upton Gardens,51.583756,-0.313531,In service
c700210cfc5df8b6945ef634ce4a32cc,SL20322,Sylvia Gardens (Monks Park),51.546167,-0.273919,In service
2dd076da4955cbc5ba343b0186514704,SL20323,Windermere Avenue,51.571454,-0.307926,In service
3b32470bef3e72f8bd072f5f5196b907,SL20325,Queensbury Station Parade,51.594277,-0.284425,In service
f0f5877bdd2709ec3d779771c4caba2b,SL20328,Donnington Road,51.541254,-0.228463,In service
0580ec5e5cfb452cea8ef68d13f85f59,SL20334,Wood Lane,51.573710,-0.261677,In service
2672292548089c65c6648b3f200fcd7f,SL20336,Mora Road,51.559632,-0.219353,In service
fdc931bdc5381a812521cd9f1a314424,SL20338,Christchurch Avenue ,51.542775,-0.211344,In service
b5d5c7263dfa6c7f2e79d527ad60bc5c,SL20339,Stafford Place,51.451658,-0.295462,In service
5e3e9296b02a8f37af29b6caa7d397c2,SL20340,Wellington Road,51.434512,-0.351576,In service
b944505fecb12eeb3d3a515109931c74,SL20341,York House Car Park ,51.447627,-0.325243,In service
504a255c2773fa686f7f02afdbae63bb,SL20344,Sheen Lane ,51.464242,-0.266863,In service
9bab7fc9b9c70b287e8000b56b859aeb,SL20347,Waldeck Road(ITS),51.589725,-0.097028,In service
889fc8656ee7de8cbb046364820a2e19,SL20350,Suffield Road,51.583920,-0.073569,In service
a1fd7136ae21c5ad3aa9d5d3873825a1,SL20354,Rutland Gardens,51.578806,-0.098595,In service
0bbb77fa3a8420150c5cf70c3aff3fa9,SL20369,Nassau Road,51.473996,-0.246132,In service
edd211601990bdba8a9f25980a1361cf,SL20372,The Green,51.444585,-0.340896,In service
52c6d89a258e1bb051f28808c6f4607a,SL20375,Lion Gate Gardens,51.470404,-0.291509,In service
6b283cdca4541795e05d7fef5d9d8d9f,SL20379,East Arbour Street,51.515415,-0.047477,In service
e39b9a755406bbf9251a823de002c82d,SL20381,Turner Street,51.516589,-0.060802,In service
058db3a6c3757ceb11d38c356dfeb9a8,SL20383,Pomell Way,51.515793,-0.073044,In service
b563dabd0faa04f02c4217d8998ab937,SL20385,Wapping High Street,51.504529,-0.066746,In service
04bd64aa169322e24617af6589d73936,SL20393,Edridge Road,51.370208,-0.098256,In service
2411e31f3aff4338fd974ce32d705a4b,SL20395,Copse Hill Site 1,51.416784,-0.244828,In service
fe8d19e8c72e55b77482a56b0805c1f4,SL20399,Parkside (Wimbledon High Street Site 2),51.426018,-0.221430,In service
d2956c46e6fe780f9b947c351a1c980d,SL20400,Revelstoke Road,51.440101,-0.197919,In service
dd669b686f5a325b44a7efc5e29c6a79,SL20402,Central Road,51.392906,-0.200133,In service
0b563c67ea1be60d24d5f3d2ce5b664f,SL20403,Cleveland Rise,51.385057,-0.220303,In service
9ddaf0a81725e6a6eee4ee61d4949f90,SL20430,Sulgrave Road,51.502114,-0.222777,In service
6a8f8589ecc65521929059af9fe32c9b,SL20433,Everington street,51.483501,-0.216314,In service
146ff1b077e7729999ed0b299a2fe639,SL20443,Woodville Gardens,51.518119,-0.297810,In service
440cd35c0a346254a040a0f72ba1279c,SL20445,Fordhook Avenue,51.510517,-0.287718,In service
51c475fd760d0c216b8d8ef570e1bfb4,SL20447,York Road (Ealing),51.518072,-0.265742,In service
2d5edf11a97bc649d36e1cf8bf1f76ce,SL20453,Selborne Gardens,51.537901,-0.324585,In service
3231749a6d256f6b819ff0aef52ecd03,SL20478,Sabine Road,51.467261,-0.162194,In service
2244f8ab78f5df29f5495d376002518a,SL20479,Wroughton Road,51.454913,-0.160402,In service
3642fe43c5de15277b81ffa49832744a,SL20480,Chatfield Road,51.465678,-0.181809,In service
d198d05a1c66aa65c037907edcd05c5d,SL20481,Canford Road,51.458717,-0.158118,In service
576ce4d4f30144454e7beb9b89ba528c,SL20482,Veronica Road,51.437735,-0.147150,In service
8ccad65256e5ab831f9181cccd08ab11,SL20484,Baskerville Road,51.449752,-0.170755,In service
0a5ada4eed1da205eb606c14a67d3691,SL20490,Somerset Road,51.433953,-0.216375,In service
d2df5d21b8363375a958c1a6dd3790aa,SL20500,North Road,51.548850,-0.122446,In service
bb321c34de561d798689cdf0520e24d4,SL20501,Huddleston Road,51.555033,-0.131770,In service
853e52781698c17072e0e6505b79e6b9,SL20503,Highbury Quadrant,51.559663,-0.093133,In service
2a1d623c15bbdb68cf45130d7eefd312,SL20504,Collins Road,51.557213,-0.091245,In service
74e0a1b4660f0ef8ff9e7c126387cc7c,SL20505,Chantry Street (Site B),51.535374,-0.098128,In service
c598926732a1e7d7faad46a9fe133e01,SL20507,Bingfield Street,51.539231,-0.118675,In service
136b80c5bea74028352d1d8218755d89,SL20508,Crescent wood Road Site 2,51.432347,-0.072859,In service
30a2799bb38d24cda99fb19cf156fd61,SL20510,Camberwell Grove,51.470248,-0.086424,In service
6796e70c5ee8d0b20fa54cd79a18b51b,SL20518,Maythorne Cottages,51.452211,-0.001929,In service
f037ee26d32a9873fd6f3f146a2fb169,SL20520,Mayow Road,51.434889,-0.046610,In service
66e46702dd77649306007d30b64bedeb,SL20521,Honour Oak Road,51.442014,-0.057602,In service
06d2bff77eb0c7a5b0391754247bbb20,SL20522,Longton Grove,51.427785,-0.065068,In service
784b2f7298d4084fb327911e3bbec42a,SL20524,Dowanhill Road,51.439965,-0.000996,In service
9f6edc230c88b0d9021fd71bcc1e5399,SL20525,Longhill Road,51.435796,-0.004904,In service
c72e170305110b5aae06cea5a4aa62cd,SL20526,Hicks Street,51.488037,-0.040206,In service
cac8e812b45670f94d5231d277575459,SL20530,Bardney Road,51.401195,-0.190679,In service
fea76b7ab660fd8591d5b3c6002add88,SL20532,Briscoe Road,51.422086,-0.176276,In service
bcbb55d67fb8fc8cdbd446919fdcffdf,SL20533,Mill Road,51.415733,-0.184093,In service
6a05f10de20f0352c5cafd8ca5b90aec,SL20535,Daybrook Road,51.407829,-0.193436,In service
af6eaefa333a58d29e03c1126fa33dce,SL20539,Arthur Road os 135 (Site 1),51.434516,-0.200815,In service
1fb0dd3ed335dde917cb1bf8947f18ee,SL20541,Calonne Road,51.432674,-0.223301,In service
ff7d3241f31e97599f08210e8e43c929,SL20542,The Downs,51.414888,-0.221028,In service
c10e83f8f0795cd6f87c41471a0222c6,SL20550,Alexandra Road,51.471287,-0.363541,In service
40bfaf035af74aa0de90219d59c26ef3,SL20552,Lampton Road,51.477367,-0.363611,In service
b3564338ab206300ac57c471505d65d1,SL20553,Brookwood Road,51.476026,-0.363544,In service
6fcbe8933378176a246b4accbdea46ca,SL20557,Westwood Road,51.465680,-0.248654,In service
df1e0236446701781694ff3350b618ec,SL20559,Southwood Road,51.436999,0.070888,In service
179660b116d4c91e09eaaf77a7fc8fdd,SL20564,Westcombe Park Road,51.479982,0.005376,In service
39b506804d21cb800ba48a2e48e2d6c6,SL20565,Zangwill Road,51.472097,0.044874,In service
e6918c22b35e965bc5f83e6cde9379db,SL20567,Abbey Wood Road Site 2,51.489680,0.120163,In service
ced6cc2669746755f4efd217a5d60f2f,SL20568,Mason Hill,51.487518,0.069518,In service
c185c3de5e72b65070afd29d68191033,SL20569,Horn Park Lane,51.453795,0.021616,In service
f76a7e05880f57c74d975b3fd4ba7dc2,SL20588,Westmount Road,51.466866,0.054488,In service
5babcbbc3ddf9015e30850cca4581408,SL20593,Robert Street,51.486197,0.080679,In service
2a17dafef6f0b54770c97b59b51e28e2,SL20610,Latchmere Lane,51.425572,-0.294951,In service
b9f7cdf776489fef1cc6068b9b9f7dbd,SL20611,Grove Crescent,51.403359,-0.302261,In service
24251ef70332ebafa22b4777f87145fc,SL20627,Banning Street (Expansion),51.487417,0.002836,In service
ca883d083a8a37b8ee9241606e1f78bf,SL20359,Gertrude Street,51.483840,-0.179862,In service
9c9fe0714a7134b56e391fd1a5e4e3bb,SL20360,Hollywood Road,51.486797,-0.185549,In service
1694a7c2383cbf1b63d41a5a9a04d035,SL20361,Sydney Street,51.489989,-0.170499,In service
33edb9e2b500c17ef306ebc4a979a878,SL20362,Draycott Avenue,51.492011,-0.163475,In service
99602e0a06f8326026c128b4be089ae2,SL20363,Bina Gardens,51.492077,-0.183899,In service
d683fa39cd1d881a206d812ceee43494,SL20364,Oakwood Court,51.500004,-0.206435,In service
083d926edbc8ad19baf31bbfcee43abc,SL20365,Lexham Gardens,51.495904,-0.191224,In service
25634be1e8990adb83ed23d212488a6b,SL20366,Pembridge Crescent,51.512756,-0.199996,In service
b0a3e2b1fbfa7c7338799858030c3cdc,SL20367,Hornton Street,51.502432,-0.194683,In service
d7d4002dbbe971d2c3e0afc9eb09b175,SL20425,Clarendon Road,51.512920,-0.211289,In service
89e3dec523c243a9ff99af43595b3474,SL20431,Chesterton Road,51.520990,-0.209805,In service
8735a1f063a723272158ec096c8d41bc,SL20432,Oxford Gardens,51.516350,-0.222238,In service
37e5fa01ac8fcad77aabe4d859e0235d,SL20434,Barlby Road,51.523421,-0.218878,In service
86b00088bff7772c1afc3923fbf75411,SL20523,Harrington Road,51.493868,-0.177633,In service
18bac3156b5a7de9eeda411daa89a35d,SL20594,Lancaster Road ,51.517070,-0.208633,In service
eb2af3c11079cf65589c05c5240a1541,SL20595,Kensal Road,51.526273,-0.214196,In service
830272a41789d1451c9e24424c9478b7,SL20596,Latimer Road Site 2,51.520679,-0.224231,In service
3a8b4f39778a70675830bbcce77f198e,SL20597,Bramley Road,51.512306,-0.217639,In service
3d061cf70f5c2ecd88c60e7779570e1c,SL20598,Oxford Gardens Site 2,51.517409,-0.217354,In service
7a0ca7822a752f9e78a79cf79f0b0546,SL20599,Campden Hill Square,51.507176,-0.200865,In service
11d916705ae904d54afd203f6fb00858,SL20600,Pembridge Square,51.511299,-0.196465,In service
11095aad9dddc8f3ac44c573ace2eae0,SL20603,Phillimore Gardens,51.501323,-0.199193,In service
d7a7f3bc5a81ea027c48dc11f3ddceb9,SL20604,Ashburn Place,51.493909,-0.184331,In service
c589c526cecf1ad5b0afae7d24d97bb3,SL20605,Penywern Road,51.490024,-0.194770,In service
245fd9fce3c954aa349ac8de4aebfc0a,SL20607,Thurloe Square,51.493957,-0.171767,In service
b8ebe56e762b2569bbb8559338b8b0f0,SL20621,Chelsea Manor Street,51.485053,-0.165944,In service
4ae37d4f2d2dcd1f1083dc9fb9134ddc,SL20622,Turks Row,51.490131,-0.157184,In service
eb8c64007b726195df839807c8291819,SL20623,Hortensia Road,51.481996,-0.185610,In service
c93b785af09efd8d67b53eb2923b2099,SL20624,South Parade (K&C),51.489438,-0.174396,In service
9529f30dcd7a759c166bbd7e48e88cf3,SL20625,Cornwall Gardens,51.497197,-0.188205,In service
78b255022ebef6b2aeb98205438657d2,SL20626,Addison Avenue,51.507972,-0.212924,In service
5c06c588a5915e7eb530e60b7b3b0829,SL20221,"Welstead Way Car Park, Bath Road (22kW)",51.495381,-0.247977,In service
54cf07b091f36d3e0a2d1e5bcf65d66a,SL20235,Strattford Taxi Rank (22kW),51.542850,-0.006744,In service
a5343cd995f82d4622745144c77a3d2e,SL20253,Elmfield Park (22kW),51.400333,0.018438,In service
eee4a56463596a3ab5da684f3b4fa22b,SL20302,Hammersmith Grove (A),51.494334,-0.226235,In service
f67904d28d55f419840aa97dbd30d548,SL20352,High Road,51.591279,-0.104138,In service
81d022defdfcce4ac36af017425b6a72,SL20391,Colson Road (Cedar Road),51.376456,-0.090381,In service
6d89728d50ac9e957129de5db82dfc13,SL20417,Worship Street Site 2,51.521827,-0.080746,In service
348212209d5e6a21486d0ffa07ee30ec,SL20424,Moreland Street,51.528745,-0.100235,In service
08951e1a4a4af0a068478e1ecc4fe73e,SL20427,Holmes Road,51.549044,-0.145934,In service
d5e66b831e811e769e26fd43f3afe747,SL20435,Crondace Road,51.475172,-0.195039,In service
13703fbd8c129b27cbd494d66721415b,SL20441,South Ealing Road,51.499915,-0.306283,In service
1448628d3de88430d703aa7e91c9f67b,SL20494,Lancaster Gate,51.511847,-0.178415,In service
395cf9a9d2725cc918b50707d9903f9f,SL20495,Sussex Place,51.514027,-0.172289,In service
6fd4972251dbb0c93d4908a57a7edbc0,SL20498,Golden Square,51.511818,-0.137617,In service
e4f52a380d554a30526cfeea835678dc,SL20502,Abercorn Place (Expansion),51.530969,-0.183909,In service
0cff4ec78684919d205d1a3ca29829d6,SL20527,Madeley Road,51.516028,-0.301232,In service
8ea202ee87cb6f11ff8cd97110477d20,SL20528,Bryanston Square,51.517895,-0.161411,In service
9199c8fedd7e32f8b782655781f044f8,SL20536,Saint Georges Road,51.420714,-0.208548,In service
602d0b9dd90745218b5cd5d4db12ce87,SL20572,Charrington Street,51.534712,-0.133626,In service
b1b8da9328d803ff357267c7963e5382,SL20573,Princeton Street,51.519887,-0.116387,In service
07d832b156de608a6cbc98197ff070cf,SL20574,Rochester Road,51.544006,-0.136707,In service
34b1162bfaf7e3ba45a59e8c22ac5c93,SL20577,Sandall Road,51.546041,-0.134085,In service
7b34152d7b0d08fff075c1ee5ba6fdd6,SL20581,Inkerman Road,51.547834,-0.145089,In service
50e631d2e6bedf5965ea7509552e802d,SL20582,Ryland Road,51.548076,-0.146132,In service
5dc29345f0b8b1c37aaaf74dfd199ffe,SL20616,High Street New Malden,51.399354,-0.255472,In service
7ce349af6304e005a3e4e7864c1858dc,SL20619,Manor Drive North,51.385367,-0.263075,In service
0e362248114ca96858d984e091c0d812,SL20628,Brook Green Site 2,51.494427,-0.215715,In service
934cdec56d450281ac096f0755dac1f2,SL20629,Waterford Road,51.480029,-0.193350,In service
9485940b8051bf386673a0d310ade177,SL20630,Kelvedon Road Site 2,51.477518,-0.202017,In service
afad3574adb98499e055c1a977da0069,SL20013,Gibson Road Car Park,51.362125,-0.196700,In service
000d54aadcedee0739d39127955f2cdb,SL20055,Calderwood Street Car Park Site 2,51.491059,0.063556,In service
03e08456df7e4d59ca740fe82a854c1a,SL20057,Time Square Car Park,51.363923,-0.191415,In service
a521ab49fda4d66970e6fb289c8bf85a,SL20111,Victoria Park Road,51.535697,-0.056371,In service
88789c11f45b65166df4450b533f45a1,SL20114,New North Road,51.530142,-0.083856,In service
4c0f5d09045582b70d11d4314006b81c,SL20115,Blurton Road,51.553586,-0.046290,In service
68be1ca8937357881a51275d977e77ea,SL20117,Clermont Road,51.536929,-0.052050,In service
d3039b2e665dcc62cdd6026f1f399eff,SL20120,Edensor Gardens,51.482189,-0.254603,In service
ac02b39ab2952a9d41752cb1f350d9e1,SL20121,Sutton Court Rd,51.481633,-0.268666,In service
766795473e39bb422d7dab8130a15c1f,SL20123,Tiverton Road,51.473405,-0.357417,In service
630952c6e5212b5d2e59d22c456d60fd,SL20124,Strand on Green ,51.488010,-0.287149,In service
de7902732455d3532a7505b8ee70c11f,SL20125,Queens Road ,51.470726,-0.366512,In service
2dbe71e79bd590ad94a00e0253c9ebdc,SL20128,Dudley Road,51.421750,-0.199878,In service
c5753f81a579a4e12222646508843922,SL20129,Mostyn Road,51.403047,-0.204681,In service
dfd10b577adecd1f6ae8c9a477b0bf2d,SL20131,Cowdry Road,51.424232,-0.188244,In service
9061e7260b17a7fdd13b8589086a4d4f,SL20135,Hartswood Road,51.498295,-0.246208,In service
094f8caf68b52572f37ee70f549e3b7d,SL20138,Waldo Road,51.530806,-0.236842,In service
fb4496b0885a0879b6efadecfa7b0c60,SL20139,Erconwald StreetSite 2,51.516664,-0.247232,In service
08b106ded9fd25e9b8dbf57452fb1912,SL20140,Bagleys Lane,51.473344,-0.184960,In service
14edf56c2a2ce0f05d20e535759f4ee9,SL20144,Watermeadow Lane,51.469869,-0.184133,In service
4e726d440360c4259a9fb2ddd1b8df44,SL20146,Edith Row ,51.477755,-0.189321,In service
d808c344dd918300663834d89bdd4371,SL20147,Hanworth Air Park Leisure Centre & Lib,51.440908,-0.391922,In service
a2bd92a4b5b334a8ad8d381dd31bd4c5,SL20158,Lupus Street,51.487632,-0.142967,In service
8aee38c5cfd6cbd0cdafeacdf058dcf4,SL20159,Grosvenor Square,51.510684,-0.151772,In service
2880b2f13cb8ec9d40eb453e5743eef9,SL20163,Delaware Road,51.525356,-0.188990,In service
cd42b89fb0bb4d4c2fdcdd0d6d45d8fc,SL20166,Cavendish Square,51.516843,-0.144301,In service
b47fd2079be41e4a37da37d49e08769f,SL20174,Wattisfield Road Site 3,51.558334,-0.049505,In service
9dda699ddd7ab7ee0e3543ceadc67e76,SL20178,Rainville Road ,51.484168,-0.224123,In service
7475ca69ec542fb2393aab4fa3b2db5d,SL20181,MacFarlane Road ,51.507990,-0.224797,In service
6d8f29b03e250bf9ff50af525466fae1,SL20182,Steventon Road ,51.510552,-0.243259,In service
b8e2e657e4d64f9205244a438e3ad4f5,SL20184,Brudenell Road,51.430398,-0.156855,In service
7c3160d451f91a3adbf1f00541d902f8,SL20185,Open view,51.439445,-0.178764,In service
a9ab29b18796823dd9be52a3f74c1459,SL20187,Rectory Lane,51.423496,-0.158887,In service
cf923a24cbf4b8bfe41683230250e3ac,SL20188,Prince of Wales Drive (site 1),51.477533,-0.149800,In service
b1d49d65692f373bd3ae6ed4af9eda30,SL20189,Sistova Road,51.443741,-0.149914,In service
604a36a7a43fb9daadbfd2007d793932,SL20191,St Johns Avenue,51.459603,-0.217793,In service
b7366692d052b3baff68beb40f3718ef,SL20194,Clonmore Street,51.444869,-0.203919,In service
e31cd76cfe8fd26990e344305d1590fd,SL20197,Albert Bridge Road,51.480664,-0.165918,In service
e840409b86e4767d2d07cff90a1eef11,SL20201,Dryburgh Road - Putney Leisure Centre,51.463538,-0.228783,In service
f9917af72cf8be350651765c3dfa8a83,SL20202,Longwood Drive,51.451006,-0.237975,In service
8f5a6c45c261b11b7ae4c829ab7c24f4,SL20203,Edgel Street,51.459932,-0.189379,In service
a14d08abcf731665252e8552f61211cb,SL20204,Heathfield Road ,51.453839,-0.180898,In service
9aa3481d565216faa912702eec881377,SL20205,Cabul Road ,51.470148,-0.170257,In service
1099e956124e4bc4d64a0b6c6c2f5366,SL20206,Este Road ,51.467693,-0.167965,In service
640609f68a3a7ad969c33b253da640a0,SL20207,Broomhill Road ,51.454842,-0.197525,In service
6255d3feb447c4dcfdb0f811b3083f36,SL20208,Keswick Road,51.458459,-0.209949,In service
3c777e60dc840db212aaebf701b526bb,SL20210,Fallsbrook Road,51.419227,-0.147078,In service
b71ecc3677e6825a62dbda1fe8ca0ca5,SL20211,Prince of Wales Drive (site 2),51.474895,-0.162132,In service
7687228498aff94678fb35fd9f76573c,SL20212,Pountney Road,51.465531,-0.156793,In service
2787b9bf40dd49c6688a314eafb8e2b4,SL20213,Sutherland Grove,51.451577,-0.209211,In service
a823ead08388fe5f9d24e842e2e0b319,SL20214,Wimbledon Road ,51.432510,-0.181572,In service
24d5c35f7e77280013a8b314ff7a7bcc,SL20216,Waterman Street,51.466630,-0.216252,In service
7d4016b8d7efbb7e42a20197d3d5417d,SL20218,Vicarage Crescent,51.472819,-0.176039,In service
86a887f9d17c9765faaa3bab8bcc678c,SL20219,Hillbury Road (Site 2),51.435187,-0.149209,In service
0c3a70ac18090afe9c6c5090b0398088,SL20232,Danebury Avenue,51.453233,-0.252181,In service
4fa6c06c16ebfd67fd23a19929f87fc0,SL20236,Rylston Road Site B,51.482917,-0.206342,In service
ff92a87f22bf2a42233df7e1b54d5093,SL20237,Danehurst Street,51.478133,-0.211037,In service
430cf70cb29d94ee73306f48a3581dfa,SL20238,Du Cane Road site 2,51.516726,-0.228623,In service
79d58cf9cf3ba08874b23b73a1cbdf08,SL20239,Goodwin Road,51.503731,-0.235769,In service
17c4357725ac6fedef831dd6fa013bad,SL20241,Bastable Avenue 1B,51.526415,0.115742,In service
dfad157111623423c17cfbcd0d568098,SL20242,Bastable Avenue (Site 2),51.527514,0.095566,In service
19eb5bae7646608e27d8ed32f02fad44,SL20243,Ivyhouse Road,51.541586,0.128127,In service
b821b869101ee544bb1aa4663b76dc00,SL20244,Heathway,51.539063,0.148141,In service
4dd5d7f0839813f2856e2e2c69d4e0b0,SL20245,Chequers Lane,51.526903,0.147295,In service
34ac4e5e1b1ad2e482ac11702f93805f,SL20246,Upney Lane,51.545232,0.094433,In service
770cacb40ddffa8650b93d883a837c84,SL20247,Longbridge Road ,51.551996,0.109428,In service
7a0896a9d71f4d2fce97908a4a45cfe9,SL20248,The Drive,51.539923,0.101198,In service
a62c8c637955e8b521be545e17173747,SL20249,Becontree Avenue Car Park,51.558693,0.127974,In service
36dd891cdf65370373308e095e7a0b78,SL20250,A118 (High Road),51.571381,0.133992,In service
6d62706fa5efc9404a258b37d3ce3532,SL20251,Dagenham Road Car Park,51.564482,0.175700,In service
d23841cbc5fe43089368c1dc9dbbf4b0,SL20252,Becontree Avenue (Wood Lane),51.560529,0.147652,In service
d43e974aa93d103dea8cc8ff215c899a,SL20254,Gale Street (Site 2),51.533774,0.127027,In service
1c4cab9abb79db850eb3d8465593e365,SL20255,Cobbold Road,51.502588,-0.252498,In service
39a2c1a937cd7abc842e03fb64538680,SL20256,Ellerton Road,51.445979,-0.178533,In service
4579da10f367382f6c82a034cac778ad,SL20260,Stevenage Road - Site 2,51.476451,-0.221629,In service
93da7fe58a420680b6bcd8f4970b6858,SL20264,Bowling Green Lane,51.524483,-0.107519,In service
66a5071e4b5b9c677bd45a9885fe0fdc,SL20265,Mylne Street (Claremont Square),51.530783,-0.109522,In service
4c0531bdaa8fc5119f4d9aaa739be383,SL20278,Central Street Site 1,51.524874,-0.096100,In service
dc159a30f1e7fe7352b88109050f5512,SL20292,Tarves Way,51.478639,-0.015579,In service
aaffd4a78ddc9a6661d0ceb7b6a81c3a,SL20294,Frances Street ,51.489773,0.053285,In service
b0adc243ac16aa491677e1e8622f5f71,SL20295,Lassell Street,51.485635,0.000338,In service
f9b28d7a78d1aefbef33ad22bd4747ed,SL20305,Blenheim Road,51.403003,-0.229584,In service
1f5fedada2eafc6fd9fbbf43f6e04498,SL20306,Ernle Road,51.418507,-0.233789,In service
1716b7ad8e0141856caa671ee2bace6b,SL20308,Streatham Road,51.417755,-0.150647,In service
18bef737da70084353805399159223ae,SL20310,Woodside,51.423356,-0.209034,In service
412297c20a1390f2b080b0151ec6fb31,SL20313,Yenston Close,51.389649,-0.197731,In service
7624778793b762d4744afae86485c0b8,SL20314,Caesar's Walk,51.397076,-0.161760,In service
c10bfcaf28ccdba68f06bb365a365fdf,SL20316,Haslemere Avenue,51.409257,-0.178181,In service
888f3acf10e90e8b16022e86afbab83c,SL20317,St Barnabas Road,51.415642,-0.154098,In service
0da8ccb89d9c1005584315b0a04437dd,SL20327,Straightsmouth,51.479859,-0.010111,In service
e33560cfe7acd20a29dd255db7a9d9c2,SL20343,Gipsy Lane,51.464901,-0.236893,In service
2c77e1339c13c8be2f4b24c231945c73,SL20346,Talbot Road,51.584181,-0.069747,In service
845af5e2f9c955b36c4718575e4a27ba,SL20348,Hillfield Park,51.589857,-0.144013,In service
8aca0d9b81061363799d17e330d239d0,SL20349,West Green Road,51.588622,-0.101636,In service
505ebf3d9d9ae0e4e36f9e672b829170,SL20351,Lawrence Road,51.587599,-0.079707,In service
d6857a9680e7ffb4633a6c1a36e68461,SL20353,Tintern Road,51.598399,-0.094038,In service
cf0389c8bd6cc2e6b8615f16abf4d1f3,SL20355,The Avenue (Har),51.590127,-0.108546,In service
862d2aec90e5d69721fc8e3bbb24059d,SL20356,Buckingham Road,51.598588,-0.120237,In service
27f2b7bfabe4dab7f5e9ef163399a272,SL20357,Priory Road,51.587299,-0.131832,In service
1ef83ff6aceb6847da6c91867e20611b,SL20358,Stanhope Road,51.577519,-0.137169,In service
dcb7dc3936705dc5f70d06a16ed8c993,SL20370,Boileau Road,51.485856,-0.235264,In service
2c63a8378d636d7be76bc31c824cdc11,SL20371,Suffolk Road,51.479785,-0.246572,In service
